,street_name,Latitude,Longitude,lat_long
0,ANG MO KIO AVE 10,1.3676017,103.8568442,"1 22m 3.36612s N, 103 51m 24.6391s E"
1,ANG MO KIO AVE 4,1.3823185,103.8387061,"1 22m 56.3466s N, 103 50m 19.342s E"
2,ANG MO KIO AVE 5,1.3768247,103.8475557,"1 22m 36.5689s N, 103 50m 51.2005s E"
3,ANG MO KIO AVE 1,1.3643546,103.8436418,"1 21m 51.6766s N, 103 50m 37.1105s E"
4,ANG MO KIO AVE 3,1.3696908,103.8409057,"1 22m 10.8869s N, 103 50m 27.2605s E"
5,ANG MO KIO AVE 9,1.3827747,103.8394374,"1 22m 57.9889s N, 103 50m 21.9746s E"
6,ANG MO KIO AVE 8,1.3784539,103.84742,"1 22m 42.434s N, 103 50m 50.712s E"
7,ANG MO KIO AVE 6,1.3741564,103.8450036,"1 22m 26.963s N, 103 50m 42.013s E"
8,ANG MO KIO ST 52,1.3730573,103.8507324,"1 22m 23.0063s N, 103 51m 2.63664s E"
9,BEDOK NORTH AVE 4,1.3340399,103.9414261,"1 20m 2.54364s N, 103 56m 29.134s E"
10,BEDOK NORTH AVE 1,1.3297469,103.9264326,"1 19m 47.0888s N, 103 55m 35.1574s E"
11,BEDOK NORTH RD,1.3313413,103.9337502,"1 19m 52.8287s N, 103 56m 1.50072s E"
12,BEDOK STH AVE 1,1.314061,103.9336214,"1 18m 50.6196s N, 103 56m 1.03704s E"
13,BEDOK RESERVOIR RD,1.3296754,103.9048357,"1 19m 46.8314s N, 103 54m 17.4085s E"
14,CHAI CHEE ST,1.3274218,103.9187437,"1 19m 38.7185s N, 103 55m 7.47732s E"
15,BEDOK NORTH ST 3,1.3339821,103.9303638,"1 20m 2.33556s N, 103 55m 49.3097s E"
16,BEDOK STH RD,1.3198453,103.935962,"1 19m 11.4431s N, 103 56m 9.4632s E"
17,CHAI CHEE AVE,1.325289,103.9232643,"1 19m 31.0404s N, 103 55m 23.7515s E"
18,NEW UPPER CHANGI RD,1.3267815,103.9459389,"1 19m 36.4134s N, 103 56m 45.38s E"
19,CHAI CHEE DRIVE,1.3258683,103.9193462,"1 19m 33.1259s N, 103 55m 9.64632s E"
20,BISHAN ST 23,1.3569767,103.8479524,"1 21m 25.1161s N, 103 50m 52.6286s E"
21,BEDOK STH AVE 2,1.3247239,103.9371862,"1 19m 29.006s N, 103 56m 13.8703s E"
22,KIM TIAN RD,1.2846604,103.8293989,"1 17m 4.77744s N, 103 49m 45.836s E"
23,BEDOK NORTH AVE 3,1.3313564,103.9343617,"1 19m 52.883s N, 103 56m 3.70212s E"
24,BEDOK RESERVOIR VIEW,1.3376794,103.9350542,"1 20m 15.6458s N, 103 56m 6.19512s E"
25,CHAI CHEE RD,1.326493,103.9235846,"1 19m 35.3748s N, 103 55m 24.9046s E"
26,LENGKONG TIGA,1.323155,103.9134669,"1 19m 23.358s N, 103 54m 48.4808s E"
27,BEDOK CENTRAL,1.3260581,103.9352645,"1 19m 33.8092s N, 103 56m 6.9522s E"
28,JALAN DAMAI,-5.406307,122.626192,"5 24m 22.7052s S, 122 37m 34.2912s E"
29,BEDOK NORTH AVE 2,1.3313193,103.9303694,"1 19m 52.7495s N, 103 55m 49.3298s E"
30,BEDOK STH AVE 3,1.3264785,103.9440644,"1 19m 35.3226s N, 103 56m 38.6318s E"
31,SIN MING RD,1.3538309,103.8359877,"1 21m 13.7912s N, 103 50m 9.55572s E"
32,SIN MING AVE,1.3603001,103.8320554,"1 21m 37.0804s N, 103 49m 55.3994s E"
33,BISHAN ST 12,1.3480256,103.849829,"1 20m 52.8922s N, 103 50m 59.3844s E"
34,BISHAN ST 13,1.3508769,103.8523645,"1 21m 3.15684s N, 103 51m 8.5122s E"
35,BISHAN ST 22,1.3599872,103.8438395,"1 21m 35.9539s N, 103 50m 37.8222s E"
36,BISHAN ST 24,1.3563979,103.8443817,"1 21m 23.0324s N, 103 50m 39.7741s E"
37,BRIGHT HILL DRIVE,1.3601554,103.8324248,"1 21m 36.5594s N, 103 49m 56.7293s E"
38,SHUNFU RD,1.3513259,103.8400297,"1 21m 4.77324s N, 103 50m 24.1069s E"
39,BUKIT BATOK ST 34,1.3637268,103.7500273,"1 21m 49.4165s N, 103 45m 0.09828s E"
40,BUKIT BATOK ST 51,1.3556782,103.7498154,"1 21m 20.4415s N, 103 44m 59.3354s E"
41,BUKIT BATOK ST 11,1.3499936,103.7423305,"1 20m 59.977s N, 103 44m 32.3898s E"
42,BUKIT BATOK ST 52,1.3543135,103.7518088,"1 21m 15.5286s N, 103 45m 6.51168s E"
43,BUKIT BATOK ST 21,1.3468302,103.750573,"1 20m 48.5887s N, 103 45m 2.0628s E"
44,BUKIT BATOK EAST AVE 5,1.3548853,103.7541381,"1 21m 17.5871s N, 103 45m 14.8972s E"
45,BUKIT BATOK WEST AVE 6,1.354495,103.7418444,"1 21m 16.182s N, 103 44m 30.6398s E"
46,BUKIT BATOK CENTRAL,1.3515765,103.7483905,"1 21m 5.6754s N, 103 44m 54.2058s E"
47,BUKIT BATOK WEST AVE 8,1.3559923,103.7400435,"1 21m 21.5723s N, 103 44m 24.1566s E"
48,BUKIT BATOK EAST AVE 4,1.3496472,103.7606908,"1 20m 58.7299s N, 103 45m 38.4869s E"
49,BUKIT BATOK ST 31,1.3598218,103.7515796,"1 21m 35.3585s N, 103 45m 5.68656s E"
50,BUKIT BATOK ST 25,1.3438997,103.7609354,"1 20m 38.0389s N, 103 45m 39.3674s E"
51,BUKIT BATOK EAST AVE 3,1.3375316,103.7604656,"1 20m 15.1138s N, 103 45m 37.6762s E"
52,BUKIT BATOK WEST AVE 5,1.3564848,103.7480422,"1 21m 23.3453s N, 103 44m 52.9519s E"
53,CANTONMENT RD,1.274558,103.8412735,"1 16m 28.4088s N, 103 50m 28.5846s E"
54,BUKIT BATOK ST 24,1.3426301,103.7567789,"1 20m 33.4684s N, 103 45m 24.404s E"
55,JALAN BUKIT HO SWEE,1.287298,103.8292451,"1 17m 14.2728s N, 103 49m 45.2824s E"
56,TELOK BLANGAH DRIVE,1.2728382,103.8090889,"1 16m 22.2175s N, 103 48m 32.72s E"
57,BEO CRES,1.2891495,103.82676999065912,"1 17m 20.9382s N, 103 49m 36.372s E"
58,TELOK BLANGAH CRES,1.2774161,103.81906217374384,"1 16m 38.698s N, 103 49m 8.62383s E"
59,TELOK BLANGAH RISE,1.2734284,103.820562,"1 16m 24.3422s N, 103 49m 14.0232s E"
60,TELOK BLANGAH WAY,1.2746254,103.8227681,"1 16m 28.6514s N, 103 49m 21.9652s E"
61,JALAN BUKIT MERAH,1.2860375,103.8088205,"1 17m 9.735s N, 103 48m 31.7538s E"
62,JALAN KLINIK,1.2880059,103.8288153,"1 17m 16.8212s N, 103 49m 43.7351s E"
63,TELOK BLANGAH HTS,1.2779863,103.8077696,"1 16m 40.7507s N, 103 48m 27.9706s E"
64,BUKIT MERAH VIEW,1.28350915,103.82332492999028,"1 17m 0.63294s N, 103 49m 23.9697s E"
65,INDUS RD,1.2900221,103.8296424,"1 17m 24.0796s N, 103 49m 46.7126s E"
66,BUKIT MERAH LANE 1,1.2859726,103.8041771,"1 17m 9.50136s N, 103 48m 15.0376s E"
67,TELOK BLANGAH ST 31,1.2741667,103.8065407,"1 16m 27.0001s N, 103 48m 23.5465s E"
68,MOH GUAN TER,1.2836697,103.8301452,"1 17m 1.21092s N, 103 49m 48.5227s E"
69,HAVELOCK RD,1.2867631,103.8448641,"1 17m 12.3472s N, 103 50m 41.5108s E"
70,HENDERSON CRES,1.289199,103.8220891,"1 17m 21.1164s N, 103 49m 19.5208s E"
71,BUKIT PURMEI RD,1.2720967,103.8245389,"1 16m 19.5481s N, 103 49m 28.34s E"
72,DEPOT RD,1.2813092,103.8021522,"1 16m 52.7131s N, 103 48m 7.74792s E"
73,JALAN RUMAH TINGGI,1.2890059,103.8091828,"1 17m 20.4212s N, 103 48m 33.0581s E"
74,DELTA AVE,1.2920076,103.8281489,"1 17m 31.2274s N, 103 49m 41.336s E"
75,JALAN MEMBINA,1.2859312,103.8272492,"1 17m 9.35232s N, 103 49m 38.0971s E"
76,REDHILL RD,1.2878448,103.8146371,"1 17m 16.2413s N, 103 48m 52.6936s E"
77,LENGKOK BAHRU,1.2879854,103.8147158,"1 17m 16.7474s N, 103 48m 52.9769s E"
78,ZION RD,1.2918193,103.8324147,"1 17m 30.5495s N, 103 49m 56.6929s E"
79,PETIR RD,1.376504,103.7684897,"1 22m 35.4144s N, 103 46m 6.56292s E"
80,PENDING RD,1.3771859,103.7718122,"1 22m 37.8692s N, 103 46m 18.5239s E"
81,BANGKIT RD,1.3793607,103.7734075,"1 22m 45.6985s N, 103 46m 24.267s E"
82,SEGAR RD,1.3890631,103.7700339,"1 23m 20.6272s N, 103 46m 12.122s E"
83,JELAPANG RD,1.3849107,103.7642241,"1 23m 5.67852s N, 103 45m 51.2068s E"
84,SENJA RD,1.3869841,103.7627954,"1 23m 13.1428s N, 103 45m 46.0634s E"
85,FAJAR RD,1.3842446,103.7703137,"1 23m 3.28056s N, 103 46m 13.1293s E"
86,BUKIT PANJANG RING RD,1.3813053,103.7632918,"1 22m 52.6991s N, 103 45m 47.8505s E"
87,CIRCUIT RD,1.326177,103.8883999,"1 19m 34.2372s N, 103 53m 18.2396s E"
88,SENJA LINK,1.3859257,103.7635851,"1 23m 9.33252s N, 103 45m 48.9064s E"
89,LOMPANG RD,1.3797237,103.7655982,"1 22m 47.0053s N, 103 45m 56.1535s E"
90,GANGSA RD,1.3800705,103.7676819,"1 22m 48.2538s N, 103 46m 3.65484s E"
91,TOH YI DRIVE,1.3359983,103.7712799,"1 20m 9.59388s N, 103 46m 16.6076s E"
92,FARRER RD,1.31748125,103.80756259256168,"1 19m 2.9325s N, 103 48m 27.2253s E"
93,JALAN KUKOH,1.2876992,103.83958,"1 17m 15.7171s N, 103 50m 22.488s E"
94,ROWELL RD,1.3077179,103.8561979,"1 18m 27.7844s N, 103 51m 22.3124s E"
95,WATERLOO ST,1.2994261,103.852085,"1 17m 57.934s N, 103 51m 7.506s E"
96,NEW MKT RD,1.2877055,103.8452162,"1 17m 15.7398s N, 103 50m 42.7783s E"
97,TANJONG PAGAR PLAZA,1.2755704,103.84299324043488,"1 16m 32.0534s N, 103 50m 34.7757s E"
98,QUEEN ST,1.3026279,103.8560759,"1 18m 9.46044s N, 103 51m 21.8732s E"
99,BAIN ST,1.2975232,103.8534339,"1 17m 51.0835s N, 103 51m 12.362s E"
100,TECK WHYE LANE,1.3798533,103.7540183,"1 22m 47.4719s N, 103 45m 14.4659s E"
101,CHOA CHU KANG AVE 4,1.3839732,103.7433587,"1 23m 2.30352s N, 103 44m 36.0913s E"
102,CHOA CHU KANG AVE 3,1.381289,103.742961,"1 22m 52.6404s N, 103 44m 34.6596s E"
103,CHOA CHU KANG CRES,1.3999138,103.7506964,"1 23m 59.6897s N, 103 45m 2.50704s E"
104,CHOA CHU KANG ST 54,1.3955363,103.7502777,"1 23m 43.9307s N, 103 45m 0.99972s E"
105,CHOA CHU KANG CENTRAL,1.3831345,103.7445107,"1 22m 59.2842s N, 103 44m 40.2385s E"
106,JALAN TECK WHYE,1.3798765,103.7578395,"1 22m 47.5554s N, 103 45m 28.2222s E"
107,CHOA CHU KANG ST 62,1.3990777,103.7456698,"1 23m 56.6797s N, 103 44m 44.4113s E"
108,CHOA CHU KANG NORTH 6,1.3962382,103.7488311,"1 23m 46.4575s N, 103 44m 55.792s E"
109,CHOA CHU KANG DRIVE,1.3863325,103.7461087,"1 23m 10.797s N, 103 44m 45.9913s E"
110,CHOA CHU KANG NORTH 5,1.3920506,103.7482012,"1 23m 31.3822s N, 103 44m 53.5243s E"
111,CHOA CHU KANG ST 52,1.3950397,103.7442614,"1 23m 42.1429s N, 103 44m 39.341s E"
112,CHOA CHU KANG AVE 2,1.3773371,103.7401825,"1 22m 38.4136s N, 103 44m 24.657s E"
113,CLEMENTI WEST ST 2,1.3034608,103.7628617,"1 18m 12.4589s N, 103 45m 46.3021s E"
114,WEST COAST RD,1.3039138,103.7648832,"1 18m 14.0897s N, 103 45m 53.5795s E"
115,CLEMENTI WEST ST 1,1.3043099,103.7646036,"1 18m 15.5156s N, 103 45m 52.573s E"
116,CLEMENTI AVE 4,1.3168202,103.7657555,"1 19m 0.55272s N, 103 45m 56.7198s E"
117,CLEMENTI AVE 5,1.317397,103.7688249,"1 19m 2.6292s N, 103 46m 7.76964s E"
118,CLEMENTI ST 11,1.3151003,103.7652311,"1 18m 54.3611s N, 103 45m 54.832s E"
119,CLEMENTI AVE 2,1.3064695,103.7633806,"1 18m 23.2902s N, 103 45m 48.1702s E"
120,CLEMENTI AVE 3,1.3141471,103.7634411,"1 18m 50.9296s N, 103 45m 48.388s E"
121,CLEMENTI AVE 1,1.3075943,103.7691926,"1 18m 27.3395s N, 103 46m 9.09336s E"
122,PUNGGOL CENTRAL,1.4085085,103.8919886,"1 24m 30.6306s N, 103 53m 31.159s E"
123,COMMONWEALTH AVE WEST,1.3162684,103.7648927,"1 18m 58.5662s N, 103 45m 53.6137s E"
124,BALAM RD,1.3298929,103.8867353,"1 19m 47.6144s N, 103 53m 12.2471s E"
125,MACPHERSON LANE,1.3319937,103.8852395,"1 19m 55.1773s N, 103 53m 6.8622s E"
126,EUNOS CRES,1.3207219,103.9036666801952,"1 19m 14.5988s N, 103 54m 13.2s E"
127,UBI AVE 1,1.326258,103.8981272,"1 19m 34.5288s N, 103 53m 53.2579s E"
128,HAIG RD,1.3097691,103.8976116,"1 18m 35.1688s N, 103 53m 51.4018s E"
129,OLD AIRPORT RD,1.3078561,103.8861654,"1 18m 28.282s N, 103 53m 10.1954s E"
130,GEYLANG EAST AVE 1,1.3176326,103.8856256,"1 19m 3.47736s N, 103 53m 8.25216s E"
131,SIMS DRIVE,1.3168076,103.8779846,"1 19m 0.50736s N, 103 52m 40.7446s E"
132,PIPIT RD,1.3236366,103.8889641,"1 19m 25.0918s N, 103 53m 20.2708s E"
133,GEYLANG EAST CENTRAL,1.32027145,103.88738263636108,"1 19m 12.9772s N, 103 53m 14.5775s E"
134,EUNOS RD 5,1.318647,103.8965168,"1 19m 7.1292s N, 103 53m 47.4605s E"
135,CASSIA CRES,1.3098466,103.884696,"1 18m 35.4478s N, 103 53m 4.9056s E"
136,BUANGKOK CRES,1.3840378,103.8833393,"1 23m 2.53608s N, 103 53m 0.02148s E"
137,HOUGANG AVE 3,1.3398661,103.8931676,"1 20m 23.518s N, 103 53m 35.4034s E"
138,HOUGANG AVE 8,1.3694513,103.87989,"1 22m 10.0247s N, 103 52m 47.604s E"
139,HOUGANG AVE 1,1.3556123,103.8900414,"1 21m 20.2043s N, 103 53m 24.149s E"
140,HOUGANG AVE 5,1.3657065,103.897866,"1 21m 56.5434s N, 103 53m 52.3176s E"
141,HOUGANG ST 61,1.3741656,103.887698,"1 22m 26.9962s N, 103 53m 15.7128s E"
142,HOUGANG ST 11,1.3520035,103.8796707,"1 21m 7.2126s N, 103 52m 46.8145s E"
143,HOUGANG AVE 7,1.3705367,103.9005966,"1 22m 13.9321s N, 103 54m 2.14776s E"
144,HOUGANG AVE 4,1.3776291,103.8845127,"1 22m 39.4648s N, 103 53m 4.24572s E"
145,COMMONWEALTH CL,1.3046601,103.7987842,"1 18m 16.7764s N, 103 47m 55.6231s E"
146,HOUGANG AVE 2,1.369344,103.880058,"1 22m 9.6384s N, 103 52m 48.2088s E"
147,LORONG AH SOO,1.3520481,103.8845867,"1 21m 7.37316s N, 103 53m 4.51212s E"
148,HOUGANG ST 92,1.3749933,103.8816732,"1 22m 29.9759s N, 103 52m 54.0235s E"
149,HOUGANG ST 52,1.3775259,103.8889484,"1 22m 39.0932s N, 103 53m 20.2142s E"
150,HOUGANG AVE 10,1.3729285,103.8942011,"1 22m 22.5426s N, 103 53m 39.124s E"
151,HOUGANG ST 51,1.3775259,103.8889484,"1 22m 39.0932s N, 103 53m 20.2142s E"
152,UPPER SERANGOON RD,1.3499218,103.8739955,"1 20m 59.7185s N, 103 52m 26.3838s E"
153,HOUGANG CENTRAL,1.3710492,103.89435758379814,"1 22m 15.7771s N, 103 53m 39.6873s E"
154,HOUGANG ST 91,1.3771311,103.884482,"1 22m 37.672s N, 103 53m 4.1352s E"
155,BUANGKOK LINK,1.3795782,103.8814051,"1 22m 46.4815s N, 103 52m 53.0584s E"
156,HOUGANG ST 31,1.3635317,103.8895347,"1 21m 48.7141s N, 103 53m 22.3249s E"
157,PANDAN GDNS,1.31941495,103.74837287818568,"1 19m 9.89382s N, 103 44m 54.1424s E"
158,TEBAN GDNS RD,1.3206275,103.7383262,"1 19m 14.259s N, 103 44m 17.9743s E"
159,JURONG EAST ST 24,1.3430954,103.7416232,"1 20m 35.1434s N, 103 44m 29.8435s E"
160,JURONG EAST ST 21,1.3388178,103.7425285,"1 20m 19.7441s N, 103 44m 33.1026s E"
161,JURONG EAST AVE 1,1.346766,103.7316884,"1 20m 48.3576s N, 103 43m 54.0782s E"
162,JURONG EAST ST 13,1.3353423,103.7387437,"1 20m 7.23228s N, 103 44m 19.4773s E"
163,JURONG EAST ST 32,1.3451967,103.733862,"1 20m 42.7081s N, 103 44m 1.9032s E"
164,TOH GUAN RD,1.3317141,103.7470242,"1 19m 54.1708s N, 103 44m 49.2871s E"
165,JURONG WEST ST 93,1.340802,103.6927096,"1 20m 26.8872s N, 103 41m 33.7546s E"
166,BOON LAY AVE,1.3487417,103.7111179,"1 20m 55.4701s N, 103 42m 40.0244s E"
167,HO CHING RD,1.3342656,103.7250118,"1 20m 3.35616s N, 103 43m 30.0425s E"
168,BOON LAY DRIVE,1.3428477,103.711129,"1 20m 34.2517s N, 103 42m 40.0644s E"
169,TAO CHING RD,1.3327685,103.7249411,"1 19m 57.9666s N, 103 43m 29.788s E"
170,JURONG WEST ST 91,1.3420393,103.6871915,"1 20m 31.3415s N, 103 41m 13.8894s E"
171,JURONG WEST ST 42,1.3527123,103.7185479,"1 21m 9.76428s N, 103 43m 6.77244s E"
172,JURONG WEST ST 92,1.3397258,103.6904298,"1 20m 23.0129s N, 103 41m 25.5473s E"
173,BOON LAY PL,1.34640455,103.7122848123319,"1 20m 47.0564s N, 103 42m 44.2253s E"
174,JURONG WEST ST 52,1.3484713,103.7177246,"1 20m 54.4967s N, 103 43m 3.80856s E"
175,JURONG WEST ST 81,1.3444497,103.6941555,"1 20m 40.0189s N, 103 41m 38.9598s E"
176,YUNG SHENG RD,1.3341299,103.7207053,"1 20m 2.86764s N, 103 43m 14.5391s E"
177,JURONG WEST ST 25,1.353982,103.7047261,"1 21m 14.3352s N, 103 42m 17.014s E"
178,JURONG WEST ST 73,1.3480442,103.6999277,"1 20m 52.9591s N, 103 41m 59.7397s E"
179,JURONG WEST ST 72,1.3466949,103.6978698,"1 20m 48.1016s N, 103 41m 52.3313s E"
180,JURONG WEST AVE 3,1.3531692,103.705033,"1 21m 11.4091s N, 103 42m 18.1188s E"
181,JURONG WEST AVE 5,1.3421726,103.6934722,"1 20m 31.8214s N, 103 41m 36.4999s E"
182,YUNG HO RD,1.3265168,103.7219332,"1 19m 35.4605s N, 103 43m 18.9595s E"
183,JURONG WEST ST 74,1.3494248,103.6992496,"1 20m 57.9293s N, 103 41m 57.2986s E"
184,JURONG WEST AVE 1,1.3504726,103.7170794,"1 21m 1.70136s N, 103 43m 1.48584s E"
185,JURONG WEST ST 71,1.3433294,103.6949759,"1 20m 35.9858s N, 103 41m 41.9132s E"
186,JURONG WEST ST 61,1.3351585,103.6988493,"1 20m 6.5706s N, 103 41m 55.8575s E"
187,JURONG WEST ST 65,1.3439813,103.703546,"1 20m 38.3327s N, 103 42m 12.7656s E"
188,TAH CHING RD,1.3365809,103.7216909,"1 20m 11.6912s N, 103 43m 18.0872s E"
189,JURONG WEST CENTRAL 1,1.3412618,103.7047643,"1 20m 28.5425s N, 103 42m 17.1515s E"
190,JURONG WEST ST 64,1.3424506,103.7037956,"1 20m 32.8222s N, 103 42m 13.6642s E"
191,JURONG WEST ST 62,1.3409755,103.7032635,"1 20m 27.5118s N, 103 42m 11.7486s E"
192,JURONG WEST ST 41,1.3477495,103.7232219,"1 20m 51.8982s N, 103 43m 23.5988s E"
193,JURONG WEST ST 24,1.3511437,103.7085022,"1 21m 4.11732s N, 103 42m 30.6079s E"
194,JALAN BATU,1.301128,103.8829812,"1 18m 4.0608s N, 103 52m 58.7323s E"
195,JALAN BAHAGIA,1.3277621,103.8571581,"1 19m 39.9436s N, 103 51m 25.7692s E"
196,LORONG LIMAU,1.3246835,103.8543359,"1 19m 28.8606s N, 103 51m 15.6092s E"
197,ST. GEORGE'S RD,1.3219991,103.8634944,"1 19m 19.1968s N, 103 51m 48.5798s E"
198,KALLANG BAHRU,1.315411,103.8645548,"1 18m 55.4796s N, 103 51m 52.3973s E"
199,DORSET RD,1.3148077,103.8521679,"1 18m 53.3077s N, 103 51m 7.80444s E"
200,GEYLANG BAHRU,1.3201475,103.8717615,"1 19m 12.531s N, 103 52m 18.3414s E"
201,BENDEMEER RD,1.3252974,103.8681201,"1 19m 31.0706s N, 103 52m 5.23236s E"
202,WHAMPOA DRIVE,1.3226521,103.8547193,"1 19m 21.5476s N, 103 51m 16.9895s E"
203,UPPER BOON KENG RD,1.3137764,103.8709028,"1 18m 49.595s N, 103 52m 15.2501s E"
204,RACE COURSE RD,1.3120873,103.8530984,"1 18m 43.5143s N, 103 51m 11.1542s E"
205,OWEN RD,1.3166829,103.8503694,"1 19m 0.05844s N, 103 51m 1.32984s E"
206,NORTH BRIDGE RD,1.2991136,103.8560806,"1 17m 56.809s N, 103 51m 21.8902s E"
207,TOWNER RD,1.3206001,103.8578367,"1 19m 14.1604s N, 103 51m 28.2121s E"
208,FARRER PK RD,1.3128704,103.8519979,"1 18m 46.3334s N, 103 51m 7.19244s E"
209,MCNAIR RD,1.3181466,103.857083,"1 19m 5.32776s N, 103 51m 25.4988s E"
210,JALAN TENTERAM,1.3280501,103.8583436,"1 19m 40.9804s N, 103 51m 30.037s E"
211,BOON KENG RD,1.3130672,103.8676393,"1 18m 47.0419s N, 103 52m 3.50148s E"
212,JALAN RAJAH,1.327694,103.8545846,"1 19m 39.6984s N, 103 51m 16.5046s E"
213,MARINE DRIVE,1.3044561,103.9085707,"1 18m 16.042s N, 103 54m 30.8545s E"
214,MARINE CRES,1.3049132,103.9119548,"1 18m 17.6875s N, 103 54m 43.0373s E"
215,MARINE TER,1.3053872,103.9169872,"1 18m 19.3939s N, 103 55m 1.15392s E"
216,CHANGI VILLAGE RD,1.3874445,103.9872927,"1 23m 14.8002s N, 103 59m 14.2537s E"
217,PASIR RIS ST 71,1.3764687,103.9360759,"1 22m 35.2873s N, 103 56m 9.87324s E"
218,PASIR RIS ST 11,1.3651789,103.9623094,"1 21m 54.644s N, 103 57m 44.3138s E"
219,PASIR RIS DRIVE 3,1.3796545,103.9417422,"1 22m 46.7562s N, 103 56m 30.2719s E"
220,PASIR RIS DRIVE 6,1.3733321,103.956317,"1 22m 23.9956s N, 103 57m 22.7412s E"
221,PASIR RIS ST 21,1.3732743,103.9609293,"1 22m 23.7875s N, 103 57m 39.3455s E"
222,PASIR RIS DRIVE 4,1.3732557,103.9608206,"1 22m 23.7205s N, 103 57m 38.9542s E"
223,PASIR RIS ST 53,1.3736297,103.9478921,"1 22m 25.0669s N, 103 56m 52.4116s E"
224,PASIR RIS DRIVE 10,1.380112,103.9384943,"1 22m 48.4032s N, 103 56m 18.5795s E"
225,PASIR RIS ST 52,1.3746686,103.9459817,"1 22m 28.807s N, 103 56m 45.5341s E"
226,PASIR RIS ST 12,1.3676522,103.9595827,"1 22m 3.54792s N, 103 57m 34.4977s E"
227,PASIR RIS ST 51,1.3692524,103.9484506,"1 22m 9.30864s N, 103 56m 54.4222s E"
228,PASIR RIS ST 72,1.3805112,103.9362128,"1 22m 49.8403s N, 103 56m 10.3661s E"
229,PASIR RIS DRIVE 1,1.376378,103.9391979,"1 22m 34.9608s N, 103 56m 21.1124s E"
230,PUNGGOL FIELD,1.3984048,103.9072285,"1 23m 54.2573s N, 103 54m 26.0226s E"
231,EDGEDALE PLAINS,1.3943247,103.9103099,"1 23m 39.5689s N, 103 54m 37.1156s E"
232,PUNGGOL FIELD WALK,1.3920159,103.9126644,"1 23m 31.2572s N, 103 54m 45.5918s E"
233,EDGEFIELD PLAINS,1.3976389,103.9068049,"1 23m 51.5s N, 103 54m 24.4976s E"
234,PUNGGOL RD,1.4092895,103.9097272,"1 24m 33.4422s N, 103 54m 35.0179s E"
235,PUNGGOL EAST,1.3969194,103.9179481,"1 23m 48.9098s N, 103 55m 4.61316s E"
236,PUNGGOL DRIVE,1.3979973,103.9188085,"1 23m 52.7903s N, 103 55m 7.7106s E"
237,PUNGGOL PL,1.4043366,103.9038354,"1 24m 15.6118s N, 103 54m 13.8074s E"
238,STIRLING RD,1.2977071,103.8024639,"1 17m 51.7456s N, 103 48m 8.87004s E"
239,MEI LING ST,1.2940781,103.8039247,"1 17m 38.6812s N, 103 48m 14.1289s E"
240,COMMONWEALTH CRES,1.3068452,103.80022692062336,"1 18m 24.6427s N, 103 48m 0.816914s E"
241,COMMONWEALTH DRIVE,1.3000135,103.7973615,"1 18m 0.0486s N, 103 47m 50.5014s E"
242,GHIM MOH RD,1.3116025,103.7867533,"1 18m 41.769s N, 103 47m 12.3119s E"
243,DOVER RD,1.3044198,103.7813791,"1 18m 15.9113s N, 103 46m 52.9648s E"
244,HOLLAND AVE,1.3085719,103.7948342,"1 18m 30.8588s N, 103 47m 41.4031s E"
245,STRATHMORE AVE,1.2935048,103.8110261,"1 17m 36.6173s N, 103 48m 39.694s E"
246,HOLLAND DRIVE,1.3122576,103.7919776,"1 18m 44.1274s N, 103 47m 31.1194s E"
247,GHIM MOH LINK,1.3084725,103.7866606,"1 18m 30.501s N, 103 47m 11.9782s E"
248,CLARENCE LANE,1.2919091,103.8140283,"1 17m 30.8728s N, 103 48m 50.5019s E"
249,DOVER CRES,1.3040731,103.7818274,"1 18m 14.6632s N, 103 46m 54.5786s E"
250,SEMBAWANG DRIVE,1.4453661,103.8200608,"1 26m 43.318s N, 103 49m 12.2189s E"
251,SEMBAWANG CL,1.4484087,103.8165876,"1 26m 54.2713s N, 103 48m 59.7154s E"
252,MONTREAL DRIVE,1.4507919,103.8253042,"1 27m 2.85084s N, 103 49m 31.0951s E"
253,ADMIRALTY LINK,1.4562348,103.8183584,"1 27m 22.4453s N, 103 49m 6.09024s E"
254,ADMIRALTY DRIVE,1.452055,103.8202935,"1 27m 7.398s N, 103 49m 13.0566s E"
255,SEMBAWANG CRES,1.4481451,103.8145197,"1 26m 53.3224s N, 103 48m 52.2709s E"
256,CANBERRA RD,1.4469884,103.8227278,"1 26m 49.1582s N, 103 49m 21.8201s E"
257,FERNVALE RD,1.3948295,103.875783,"1 23m 41.3862s N, 103 52m 32.8188s E"
258,COMPASSVALE LANE,1.3847888,103.8971034,"1 23m 5.23968s N, 103 53m 49.5722s E"
259,ANCHORVALE RD,1.3969613,103.887776,"1 23m 49.0607s N, 103 53m 15.9936s E"
260,RIVERVALE DRIVE,1.3887159,103.9060742,"1 23m 19.3772s N, 103 54m 21.8671s E"
261,RIVERVALE CRES,1.3920559,103.9070585,"1 23m 31.4012s N, 103 54m 25.4106s E"
262,SENGKANG EAST WAY,1.3884457,103.906085,"1 23m 18.4045s N, 103 54m 21.906s E"
263,RIVERVALE ST,1.3887037,103.902154,"1 23m 19.3333s N, 103 54m 7.7544s E"
264,RIVERVALE WALK,1.3840515,103.9000606,"1 23m 2.5854s N, 103 54m 0.21816s E"
265,FERNVALE LANE,1.39002,103.8735941,"1 23m 24.072s N, 103 52m 24.9388s E"
266,ANCHORVALE LINK,1.3940784,103.890576,"1 23m 38.6822s N, 103 53m 26.0736s E"
267,COMPASSVALE RD,1.3916513,103.897983,"1 23m 29.9447s N, 103 53m 52.7388s E"
268,COMPASSVALE CRES,1.3953684,103.8992134,"1 23m 43.3262s N, 103 53m 57.1682s E"
269,JALAN KAYU,1.3923332,103.8722069,"1 23m 32.3995s N, 103 52m 19.9448s E"
270,COMPASSVALE WALK,1.3869718,103.8998933,"1 23m 13.0985s N, 103 53m 59.6159s E"
271,COMPASSVALE DRIVE,1.3866439,103.9004244,"1 23m 11.918s N, 103 54m 1.52784s E"
272,COMPASSVALE LINK,1.3843684,103.8952937,"1 23m 3.72624s N, 103 53m 43.0573s E"
273,COMPASSVALE BOW,1.3826096,103.8915212,"1 22m 57.3946s N, 103 53m 29.4763s E"
274,SENGKANG CENTRAL,1.3815363,103.8930357,"1 22m 53.5307s N, 103 53m 34.9285s E"
275,ANCHORVALE LANE,1.3918577,103.8865184,"1 23m 30.6877s N, 103 53m 11.4662s E"
276,ANCHORVALE DRIVE,1.390511,103.8895637,"1 23m 25.8396s N, 103 53m 22.4293s E"
277,COMPASSVALE ST,1.39613,103.8945619,"1 23m 46.068s N, 103 53m 40.4228s E"
278,SERANGOON AVE 4,1.3557437,103.8713719,"1 21m 20.6773s N, 103 52m 16.9388s E"
279,LORONG LEW LIAN,1.3501286,103.8776314,"1 21m 0.46296s N, 103 52m 39.473s E"
280,SERANGOON AVE 2,1.3552437,103.8677935,"1 21m 18.8773s N, 103 52m 4.0566s E"
281,SERANGOON NORTH AVE 1,1.369237,103.8736126,"1 22m 9.2532s N, 103 52m 25.0054s E"
282,SERANGOON AVE 1,1.3475649,103.8744403,"1 20m 51.2336s N, 103 52m 27.9851s E"
283,SERANGOON CENTRAL,1.3535142,103.8716163518423,"1 21m 12.6511s N, 103 52m 17.8189s E"
284,SERANGOON NORTH AVE 4,1.3726139,103.8736497,"1 22m 21.41s N, 103 52m 25.1389s E"
285,TAMPINES ST 22,1.3495407,103.9536182,"1 20m 58.3465s N, 103 57m 13.0255s E"
286,TAMPINES ST 41,1.3582131,103.9463412,"1 21m 29.5672s N, 103 56m 46.8283s E"
287,TAMPINES AVE 4,1.3544826,103.9463436,"1 21m 16.1374s N, 103 56m 46.837s E"
288,TAMPINES ST 44,1.3609365,103.9542202,"1 21m 39.3714s N, 103 57m 15.1927s E"
289,TAMPINES ST 81,1.3484091,103.9361069,"1 20m 54.2728s N, 103 56m 9.98484s E"
290,TAMPINES ST 11,1.3471894,103.9447013,"1 20m 49.8818s N, 103 56m 40.9247s E"
291,TAMPINES ST 23,1.3537838,103.9550918,"1 21m 13.6217s N, 103 57m 18.3305s E"
292,TAMPINES ST 91,1.3478628,103.940315,"1 20m 52.3061s N, 103 56m 25.134s E"
293,TAMPINES ST 21,1.3552692,103.948199,"1 21m 18.9691s N, 103 56m 53.5164s E"
294,TAMPINES ST 83,1.3512935,103.9336735,"1 21m 4.6566s N, 103 56m 1.2246s E"
295,TAMPINES ST 42,1.358605,103.9545739,"1 21m 30.978s N, 103 57m 16.466s E"
296,TAMPINES ST 71,1.3585006,103.9341191,"1 21m 30.6022s N, 103 56m 2.82876s E"
297,TAMPINES ST 45,1.3624096,103.955691,"1 21m 44.6746s N, 103 57m 20.4876s E"
298,TAMPINES ST 34,1.3553472,103.9606664,"1 21m 19.2499s N, 103 57m 38.399s E"
299,TOA PAYOH NORTH,1.3416548,103.8464593736629,"1 20m 29.9573s N, 103 50m 47.2537s E"
300,TAMPINES ST 82,1.3531482,103.9372219,"1 21m 11.3335s N, 103 56m 13.9988s E"
301,TAMPINES AVE 9,1.3603978,103.938165,"1 21m 37.4321s N, 103 56m 17.394s E"
302,SIMEI ST 1,1.343228,103.9516301,"1 20m 35.6208s N, 103 57m 5.86836s E"
303,SIMEI ST 5,1.3446617,103.9534754,"1 20m 40.7821s N, 103 57m 12.5114s E"
304,TAMPINES ST 72,1.3602214,103.9346527,"1 21m 36.797s N, 103 56m 4.74972s E"
305,TAMPINES ST 84,1.3528162,103.9322309,"1 21m 10.1383s N, 103 55m 56.0312s E"
306,SIMEI ST 2,1.344199,103.9554963,"1 20m 39.1164s N, 103 57m 19.7867s E"
307,TAMPINES CENTRAL 7,1.3590165,103.9421926,"1 21m 32.4594s N, 103 56m 31.8934s E"
308,TAMPINES ST 33,1.3533091,103.9579475,"1 21m 11.9128s N, 103 57m 28.611s E"
309,TAMPINES ST 32,1.3537743,103.9577272,"1 21m 13.5875s N, 103 57m 27.8179s E"
310,TAMPINES AVE 5,1.3463097,103.9431128,"1 20m 46.7149s N, 103 56m 35.2061s E"
311,LORONG 5 TOA PAYOH,1.3372441,103.8520887,"1 20m 14.0788s N, 103 51m 7.51932s E"
312,LORONG 7 TOA PAYOH,1.3375065,103.8535872,"1 20m 15.0234s N, 103 51m 12.9139s E"
313,LORONG 4 TOA PAYOH,1.3364855,103.8501438,"1 20m 11.3478s N, 103 51m 0.51768s E"
314,LORONG 1 TOA PAYOH,1.3372437,103.8435121,"1 20m 14.0773s N, 103 50m 36.6436s E"
315,TOA PAYOH EAST,1.3342747,103.8567495,"1 20m 3.38892s N, 103 51m 24.2982s E"
316,POTONG PASIR AVE 1,1.3359313,103.864586,"1 20m 9.35268s N, 103 51m 52.5096s E"
317,LORONG 8 TOA PAYOH,1.3397755,103.857539,"1 20m 23.1918s N, 103 51m 27.1404s E"
318,LORONG 3 TOA PAYOH,1.338247,103.8472346,"1 20m 17.6892s N, 103 50m 50.0446s E"
319,POTONG PASIR AVE 3,1.3358054,103.8649,"1 20m 8.89944s N, 103 51m 53.64s E"
320,JOO SENG RD,1.3373789,103.8822618,"1 20m 14.564s N, 103 52m 56.1425s E"
321,LORONG 2 TOA PAYOH,1.3344892,103.8469774,"1 20m 4.16112s N, 103 50m 49.1186s E"
322,TOA PAYOH CENTRAL,1.3326741,103.85052221136596,"1 19m 57.6268s N, 103 51m 1.87996s E"
323,MARSILING DRIVE,1.4437577,103.7731784,"1 26m 37.5277s N, 103 46m 23.4422s E"
324,WOODLANDS ST 13,1.4355016,103.7789313,"1 26m 7.80576s N, 103 46m 44.1527s E"
325,WOODLANDS DRIVE 52,1.4332069,103.7992763,"1 25m 59.5448s N, 103 47m 57.3947s E"
326,WOODLANDS ST 41,1.42752,103.7735293,"1 25m 39.072s N, 103 46m 24.7055s E"
327,MARSILING CRES,1.4488393,103.7754988,"1 26m 55.8215s N, 103 46m 31.7957s E"
328,WOODLANDS ST 83,1.4390696,103.7920967,"1 26m 20.6506s N, 103 47m 31.5481s E"
329,WOODLANDS CIRCLE,1.4422997,103.7988617,"1 26m 32.2789s N, 103 47m 55.9021s E"
330,WOODLANDS DRIVE 40,1.4417077,103.7953695,"1 26m 30.1477s N, 103 47m 43.3302s E"
331,WOODLANDS ST 31,1.4302688,103.7754506,"1 25m 48.9677s N, 103 46m 31.6222s E"
332,WOODLANDS DRIVE 16,1.430358,103.7992814,"1 25m 49.2888s N, 103 47m 57.413s E"
333,WOODLANDS ST 81,1.4425691,103.7888622,"1 26m 33.2488s N, 103 47m 19.9039s E"
334,WOODLANDS RING RD,1.436993,103.7975138,"1 26m 13.1748s N, 103 47m 51.0497s E"
335,WOODLANDS DRIVE 53,1.4330392,103.7972655,"1 25m 58.9411s N, 103 47m 50.1558s E"
336,WOODLANDS DRIVE 62,1.4392459,103.805544,"1 26m 21.2852s N, 103 48m 19.9584s E"
337,WOODLANDS DRIVE 70,1.4401658,103.7985222,"1 26m 24.5969s N, 103 47m 54.6799s E"
338,WOODLANDS DRIVE 42,1.4369878,103.79746,"1 26m 13.1561s N, 103 47m 50.856s E"
339,WOODLANDS DRIVE 50,1.4354097,103.7909752,"1 26m 7.47492s N, 103 47m 27.5107s E"
340,WOODLANDS AVE 6,1.4294584,103.7979671,"1 25m 46.0502s N, 103 47m 52.6816s E"
341,WOODLANDS DRIVE 14,1.433499,103.7898867,"1 26m 0.5964s N, 103 47m 23.5921s E"
342,WOODLANDS AVE 1,1.4280562,103.7923223,"1 25m 41.0023s N, 103 47m 32.3603s E"
343,WOODLANDS AVE 5,1.4342973,103.7856538,"1 26m 3.47028s N, 103 47m 8.35368s E"
344,MARSILING RISE,1.4381712,103.7822464,"1 26m 17.4163s N, 103 46m 56.087s E"
345,WOODLANDS CRES,1.4466671,103.8019736,"1 26m 48.0016s N, 103 48m 7.10496s E"
346,WOODLANDS DRIVE 73,1.442578,103.8048185,"1 26m 33.2808s N, 103 48m 17.3466s E"
347,WOODLANDS DRIVE 44,1.4317591,103.7938399,"1 25m 54.3328s N, 103 47m 37.8236s E"
348,YISHUN RING RD,1.4243404,103.8450699,"1 25m 27.6254s N, 103 50m 42.2516s E"
349,YISHUN AVE 3,1.4231327,103.8308992,"1 25m 23.2777s N, 103 49m 51.2371s E"
350,YISHUN ST 11,1.4304225,103.8334205,"1 25m 49.521s N, 103 50m 0.3138s E"
351,YISHUN AVE 4,1.4160578,103.8397203,"1 24m 57.8081s N, 103 50m 22.9931s E"
352,YISHUN ST 22,1.4365851,103.8394404,"1 26m 11.7064s N, 103 50m 21.9854s E"
353,YISHUN ST 71,1.4263794,103.8279984,"1 25m 34.9658s N, 103 49m 40.7942s E"
354,YISHUN AVE 5,1.4304131,103.8297751,"1 25m 49.4872s N, 103 49m 47.1904s E"
355,YISHUN ST 21,1.4352144,103.8362337,"1 26m 6.77184s N, 103 50m 10.4413s E"
356,YISHUN ST 41,1.4193466,103.8456525,"1 25m 9.64776s N, 103 50m 44.349s E"
357,YISHUN ST 61,1.4180955,103.8386676,"1 25m 5.1438s N, 103 50m 19.2034s E"
358,YISHUN AVE 6,1.4261421,103.8496526,"1 25m 34.1116s N, 103 50m 58.7494s E"
359,YISHUN AVE 11,1.425057,103.8442624,"1 25m 30.2052s N, 103 50m 39.3446s E"
360,YISHUN CENTRAL,1.42645065,103.83720383435042,"1 25m 35.2223s N, 103 50m 13.9338s E"
361,YISHUN ST 81,1.4152526,103.8370213,"1 24m 54.9094s N, 103 50m 13.2767s E"
362,YISHUN ST 72,1.4287667,103.8326043,"1 25m 43.5601s N, 103 49m 57.3755s E"
363,YISHUN AVE 2,1.4248635,103.8352035,"1 25m 29.5086s N, 103 50m 6.7326s E"
364,ANG MO KIO ST 32,1.3635834,103.8490867,"1 21m 48.9002s N, 103 50m 56.7121s E"
365,ANG MO KIO ST 31,1.3659744,103.8499658,"1 21m 57.5078s N, 103 50m 59.8769s E"
366,BEDOK NORTH ST 2,1.3300119,103.9346388,"1 19m 48.0428s N, 103 56m 4.69968s E"
367,BEDOK NORTH ST 1,1.3270503,103.9304529,"1 19m 37.3811s N, 103 55m 49.6304s E"
368,JALAN TENAGA,1.3314793,103.9070574,"1 19m 53.3255s N, 103 54m 25.4066s E"
369,BEDOK NORTH ST 4,1.3325714,103.9397077,"1 19m 57.257s N, 103 56m 22.9477s E"
370,BUKIT BATOK WEST AVE 4,1.3650447,103.7470719,"1 21m 54.1609s N, 103 44m 49.4588s E"
371,CANTONMENT CL,1.2750036,103.8402184,"1 16m 30.013s N, 103 50m 24.7862s E"
372,BOON TIONG RD,1.2864646,103.8320221,"1 17m 11.2726s N, 103 49m 55.2796s E"
373,SPOTTISWOODE PK RD,1.2734521,103.8394071,"1 16m 24.4276s N, 103 50m 21.8656s E"
374,REDHILL CL,1.2851465,103.8174162,"1 17m 6.5274s N, 103 49m 2.69832s E"
375,KIM TIAN PL,1.3114355,103.8762403,"1 18m 41.1678s N, 103 52m 34.4651s E"
376,CASHEW RD,1.3696059,103.7646971,"1 22m 10.5812s N, 103 45m 52.9096s E"
377,QUEEN'S RD,1.3183905,103.8073624,"1 19m 6.2058s N, 103 48m 26.5046s E"
378,CHANDER RD,1.30917,103.8530903,"1 18m 33.012s N, 103 51m 11.1251s E"
379,KELANTAN RD,1.3057284,103.8563681,"1 18m 20.6222s N, 103 51m 22.9252s E"
380,SAGO LANE,1.2811686,103.8444047,"1 16m 52.207s N, 103 50m 39.8569s E"
381,UPPER CROSS ST,1.2878588,103.8417074,"1 17m 16.2917s N, 103 50m 30.1466s E"
382,CHIN SWEE RD,1.2879366,103.8410855,"1 17m 16.5718s N, 103 50m 27.9078s E"
383,SMITH ST,37.706114,-97.401073,"37 42m 22.0104s N, 97 24m 3.8628s W"
384,TECK WHYE AVE,1.381568,103.7531023,"1 22m 53.6448s N, 103 45m 11.1683s E"
385,CHOA CHU KANG ST 51,1.3918953,103.7424097,"1 23m 30.8231s N, 103 44m 32.6749s E"
386,CHOA CHU KANG AVE 5,1.3752682,103.7401485,"1 22m 30.9655s N, 103 44m 24.5346s E"
387,CHOA CHU KANG AVE 1,1.3767337,103.7407287,"1 22m 36.2413s N, 103 44m 26.6233s E"
388,WEST COAST DRIVE,1.3169975,103.7565925,"1 19m 1.191s N, 103 45m 23.733s E"
389,PAYA LEBAR WAY,1.3239298,103.8850491,"1 19m 26.1473s N, 103 53m 6.17676s E"
390,ALJUNIED CRES,1.3193329,103.8857789,"1 19m 9.59844s N, 103 53m 8.80404s E"
391,JOO CHIAT RD,1.3076811,103.9036965,"1 18m 27.652s N, 103 54m 13.3074s E"
392,PINE CL,1.3088432,103.8825838,"1 18m 31.8355s N, 103 52m 57.3017s E"
393,HOUGANG ST 22,1.3556681,103.8910059,"1 21m 20.4052s N, 103 53m 27.6212s E"
394,HOUGANG AVE 9,1.3749681,103.8801684,"1 22m 29.8852s N, 103 52m 48.6062s E"
395,HOUGANG AVE 6,1.3733707,103.892823,"1 22m 24.1345s N, 103 53m 34.1628s E"
396,HOUGANG ST 21,1.3594517,103.8888817,"1 21m 34.0261s N, 103 53m 19.9741s E"
397,JURONG WEST ST 75,1.3463675,103.7020115,"1 20m 46.923s N, 103 42m 7.2414s E"
398,KANG CHING RD,1.3390269,103.721943,"1 20m 20.4968s N, 103 43m 18.9948s E"
399,KAMPONG KAYU RD,1.3032065,103.8831258,"1 18m 11.5434s N, 103 52m 59.2529s E"
400,CRAWFORD LANE,1.3048464,103.8625836,"1 18m 17.447s N, 103 51m 45.301s E"
401,WHAMPOA WEST,1.3200862,103.8647036,"1 19m 12.3103s N, 103 51m 52.933s E"
402,BEACH RD,1.3030517,103.8622669,"1 18m 10.9861s N, 103 51m 44.1608s E"
403,CAMBRIDGE RD,37.592326,-97.526124,"37 35m 32.3736s N, 97 31m 34.0464s W"
404,ST. GEORGE'S LANE,1.3223273,103.8617865,"1 19m 20.3783s N, 103 51m 42.4314s E"
405,JELLICOE RD,1.3085687,103.8629567,"1 18m 30.8473s N, 103 51m 46.6441s E"
406,ELIAS RD,1.3732198,103.9402901,"1 22m 23.5913s N, 103 56m 25.0444s E"
407,HOLLAND CL,1.3073048,103.7960335,"1 18m 26.2973s N, 103 47m 45.7206s E"
408,TANGLIN HALT RD,1.3005279,103.7983595,"1 18m 1.90044s N, 103 47m 54.0942s E"
409,COMMONWEALTH AVE,1.3024928,103.7980624,"1 18m 8.97408s N, 103 47m 53.0246s E"
410,WELLINGTON CIRCLE,1.452079,103.8203539,"1 27m 7.4844s N, 103 49m 13.274s E"
411,CANBERRA LINK,1.4446381,103.8291537,"1 26m 40.6972s N, 103 49m 44.9533s E"
412,SENGKANG WEST AVE,1.3915181,103.8825691,"1 23m 29.4652s N, 103 52m 57.2488s E"
413,SENGKANG EAST RD,1.382487,103.8890709,"1 22m 56.9532s N, 103 53m 20.6552s E"
414,SERANGOON CENTRAL DRIVE,1.3546775,103.8716025,"1 21m 16.839s N, 103 52m 17.769s E"
415,SERANGOON AVE 3,1.3529215,103.870596,"1 21m 10.5174s N, 103 52m 14.1456s E"
416,SERANGOON NORTH AVE 3,1.373346,103.8712819,"1 22m 24.0456s N, 103 52m 16.6148s E"
417,TAMPINES AVE 8,1.3535066,103.9310827,"1 21m 12.6238s N, 103 55m 51.8977s E"
418,TAMPINES ST 24,1.3564953,103.9519228,"1 21m 23.3831s N, 103 57m 6.92208s E"
419,TAMPINES ST 12,1.3489353,103.9454484,"1 20m 56.1671s N, 103 56m 43.6142s E"
420,SIMEI LANE,1.3430495,103.957905,"1 20m 34.9782s N, 103 57m 28.458s E"
421,SIMEI ST 4,1.342092,103.9580175,"1 20m 31.5312s N, 103 57m 28.863s E"
422,LORONG 6 TOA PAYOH,1.3329227,103.855901,"1 19m 58.5217s N, 103 51m 21.2436s E"
423,KIM KEAT LINK,1.3311844,103.8550185,"1 19m 52.2638s N, 103 51m 18.0666s E"
424,MARSILING LANE,1.444948,103.7762256,"1 26m 41.8128s N, 103 46m 34.4122s E"
425,WOODLANDS ST 82,1.444474,103.7933728,"1 26m 40.1064s N, 103 47m 36.1421s E"
426,WOODLANDS DRIVE 60,1.4469862,103.7997689,"1 26m 49.1503s N, 103 47m 59.168s E"
427,WOODLANDS AVE 3,1.4315466,103.7689234,"1 25m 53.5678s N, 103 46m 8.12424s E"
428,WOODLAND DRIVE 75,1.4420127,103.8076149,"1 26m 31.2457s N, 103 48m 27.4136s E"
429,WOODLANDS AVE 4,1.4453152,103.7927675,"1 26m 43.1347s N, 103 47m 33.963s E"
430,WOODLANDS ST 32,1.4311504,103.7799985,"1 25m 52.1414s N, 103 46m 47.9946s E"
431,YISHUN AVE 7,1.4373819,103.8308881,"1 26m 14.5748s N, 103 49m 51.1972s E"
432,ANG MO KIO ST 11,1.3710204,103.8348104,"1 22m 15.6734s N, 103 50m 5.31744s E"
433,BISHAN ST 11,1.3465609,103.8521773,"1 20m 47.6192s N, 103 51m 7.83828s E"
434,BUKIT BATOK WEST AVE 2,1.3586898,103.7471721,"1 21m 31.2833s N, 103 44m 49.8196s E"
435,BUKIT BATOK ST 32,1.3651851,103.7487672,"1 21m 54.6664s N, 103 44m 55.5619s E"
436,BUKIT BATOK ST 33,1.3619204,103.7469144,"1 21m 42.9134s N, 103 44m 48.8918s E"
437,BUKIT BATOK ST 22,1.344382,103.7491765,"1 20m 39.7752s N, 103 44m 57.0354s E"
438,BUKIT BATOK WEST AVE 7,1.3652769,103.7463748,"1 21m 54.9968s N, 103 44m 46.9493s E"
439,HOY FATT RD,1.2864118,103.8103014,"1 17m 11.0825s N, 103 48m 37.085s E"
440,SILAT AVE,1.2763979,103.8305709,"1 16m 35.0324s N, 103 49m 50.0552s E"
441,EVERTON PK,1.2771286000000002,103.8393679151902,"1 16m 37.663s N, 103 50m 21.7245s E"
442,BUKIT MERAH CENTRAL,1.28281325,103.81674298893428,"1 16m 58.1277s N, 103 49m 0.27476s E"
443,JELEBU RD,1.3803064,103.763659,"1 22m 49.103s N, 103 45m 49.1724s E"
444,EMPRESS RD,1.3168431,103.8067178,"1 19m 0.63516s N, 103 48m 24.1841s E"
445,VEERASAMY RD,1.3077444,103.8530048,"1 18m 27.8798s N, 103 51m 10.8173s E"
446,CHOA CHU KANG ST 64,1.3975043,103.7500658,"1 23m 51.0155s N, 103 45m 0.23688s E"
447,CHOA CHU KANG ST 53,1.3916914,103.7472554,"1 23m 30.089s N, 103 44m 50.1194s E"
448,CHOA CHU KANG NORTH 7,1.4005249,103.7486967,"1 24m 1.88964s N, 103 44m 55.3081s E"
449,CLEMENTI AVE 6,1.3256737,103.7641107,"1 19m 32.4253s N, 103 45m 50.7985s E"
450,GEYLANG SERAI,1.3162526,103.8975689,"1 18m 58.5094s N, 103 53m 51.248s E"
451,CLEMENTI ST 13,1.3239392,103.7708881,"1 19m 26.1811s N, 103 46m 15.1972s E"
452,JALAN TIGA,1.3087324,103.8841438,"1 18m 31.4366s N, 103 53m 2.91768s E"
453,ALJUNIED RD,1.3259736,103.8807041,"1 19m 33.505s N, 103 52m 50.5348s E"
454,157 CORPORATION DRIVE,1.3267331,103.7227817,"1 19m 36.2392s N, 103 43m 22.0141s E"
455,YUNG AN RD,1.3358599,103.7196616,"1 20m 9.09564s N, 103 43m 10.7818s E"
456,JALAN MA'MOR,1.3283084,103.8577785,"1 19m 41.9102s N, 103 51m 28.0026s E"
457,WHAMPOA RD,1.3254354,103.8570944,"1 19m 31.5674s N, 103 51m 25.5398s E"
458,LORONG 3 GEYLANG,1.3124072,103.8741231,"1 18m 44.6659s N, 103 52m 26.8432s E"
459,PASIR RIS ST 13,1.3634329,103.9625193,"1 21m 48.3584s N, 103 57m 45.0695s E"
460,QUEEN'S CL,1.2939254,103.8005498,"1 17m 38.1314s N, 103 48m 1.97928s E"
461,DOVER CL EAST,1.3038397,103.7861,"1 18m 13.8229s N, 103 47m 9.96s E"
462,SEMBAWANG VISTA,1.4470896,103.8192327,"1 26m 49.5226s N, 103 49m 9.23772s E"
463,TAMPINES ST 43,1.3586597,103.9523979,"1 21m 31.1749s N, 103 57m 8.63244s E"
464,SIMEI RD,1.3398248,103.960775,"1 20m 23.3693s N, 103 57m 38.79s E"
465,KIM KEAT AVE,1.3324631,103.8596967,"1 19m 56.8672s N, 103 51m 34.9081s E"
466,UPPER ALJUNIED LANE,1.3350239,103.8799336,"1 20m 6.08604s N, 103 52m 47.761s E"
467,POTONG PASIR AVE 2,1.3322371,103.8670407,"1 19m 56.0536s N, 103 52m 1.34652s E"
468,WOODLANDS DRIVE 72,1.4435007,103.8043718,"1 26m 36.6025s N, 103 48m 15.7385s E"
469,MARSILING RD,1.4385868,103.7762958,"1 26m 18.9125s N, 103 46m 34.6649s E"
470,WOODLANDS DRIVE 71,1.4389971,103.8005013,"1 26m 20.3896s N, 103 48m 1.80468s E"
471,YISHUN AVE 9,1.4310689,103.8391126,"1 25m 51.848s N, 103 50m 20.8054s E"
472,YISHUN ST 20,1.4360609,103.8358822,"1 26m 9.81924s N, 103 50m 9.17592s E"
473,ANG MO KIO ST 21,1.3709728,103.8351999,"1 22m 15.5021s N, 103 50m 6.71964s E"
474,TIONG BAHRU RD,1.2886625,103.8198921,"1 17m 19.185s N, 103 49m 11.6116s E"
475,KLANG LANE,1.3084848,103.8522978,"1 18m 30.5453s N, 103 51m 8.27208s E"
476,CHOA CHU KANG LOOP,1.384214,103.7434613,"1 23m 3.1704s N, 103 44m 36.4607s E"
477,CLEMENTI ST 14,1.3228445,103.7685144,"1 19m 22.2402s N, 103 46m 6.65184s E"
478,SIMS PL,1.3158586,103.878363,"1 18m 57.091s N, 103 52m 42.1068s E"
479,JURONG EAST ST 31,1.3463986,103.7316602,"1 20m 47.035s N, 103 43m 53.9767s E"
480,YUAN CHING RD,1.3326792,103.7250429,"1 19m 57.6451s N, 103 43m 30.1544s E"
481,CORPORATION DRIVE,1.3267301,103.7227069,"1 19m 36.2284s N, 103 43m 21.7448s E"
482,WHAMPOA STH,1.3241061,103.8670139,"1 19m 26.782s N, 103 52m 1.25004s E"
483,TESSENSOHN RD,1.3139439,103.8546605,"1 18m 50.198s N, 103 51m 16.7778s E"
484,JALAN DUSUN,-5.5911199,122.7313624,"5 35m 28.0316s S, 122 43m 52.9046s E"
485,QUEENSWAY,1.3023752,103.8014794,"1 18m 8.55072s N, 103 48m 5.32584s E"
486,FERNVALE LINK,1.395698,103.8791298,"1 23m 44.5128s N, 103 52m 44.8673s E"
487,KIM PONG RD,1.2839264,103.8301604,"1 17m 2.13504s N, 103 49m 48.5774s E"
488,KIM CHENG ST,1.2845581,103.8319423,"1 17m 4.40916s N, 103 49m 54.9923s E"
489,SAUJANA RD,1.3832109,103.7661642,"1 22m 59.5592s N, 103 45m 58.1911s E"
490,BUFFALO RD,1.3072583,103.8500308,"1 18m 26.1299s N, 103 51m 0.11088s E"
491,CLEMENTI ST 12,1.3228185,103.7700351,"1 19m 22.1466s N, 103 46m 12.1264s E"
492,DAKOTA CRES,1.306679,103.8866899,"1 18m 24.0444s N, 103 53m 12.0836s E"
493,JURONG WEST ST 51,1.3491004,103.7198939,"1 20m 56.7614s N, 103 43m 11.618s E"
494,FRENCH RD,1.3071728,103.8613904,"1 18m 25.8221s N, 103 51m 41.0054s E"
495,GLOUCESTER RD,1.3120525,103.8529403,"1 18m 43.389s N, 103 51m 10.5851s E"
496,KAMPONG ARANG RD,1.3004951,103.8825186,"1 18m 1.78236s N, 103 52m 57.067s E"
497,MOULMEIN RD,1.3194206,103.8510063,"1 19m 9.91416s N, 103 51m 3.62268s E"
498,KENT RD,1.316695,103.8525831,"1 19m 0.102s N, 103 51m 9.29916s E"
499,AH HOOD RD,1.3275506,103.8457531,"1 19m 39.1822s N, 103 50m 44.7112s E"
500,SERANGOON NORTH AVE 2,1.3687323,103.8741669,"1 22m 7.43628s N, 103 52m 27.0008s E"
501,TAMPINES CENTRAL 1,1.353727,103.9427068,"1 21m 13.4172s N, 103 56m 33.7445s E"
502,TAMPINES AVE 7,1.3566625,103.946414,"1 21m 23.985s N, 103 56m 47.0904s E"
503,LORONG 1A TOA PAYOH,1.3370851,103.8446577,"1 20m 13.5064s N, 103 50m 40.7677s E"
504,WOODLANDS AVE 9,1.447736,103.7972477,"1 26m 51.8496s N, 103 47m 50.0917s E"
505,YISHUN CENTRAL 1,1.424791,103.8367916,"1 25m 29.2476s N, 103 50m 12.4498s E"
506,LOWER DELTA RD,1.2858915,103.8251665,"1 17m 9.2094s N, 103 49m 30.5994s E"
507,JALAN DUA,5.6393874,100.4935567,"5 38m 21.7946s N, 100 29m 36.8041s E"
508,WOODLANDS ST 11,1.4327211,103.7756159,"1 25m 57.796s N, 103 46m 32.2172s E"
509,ANG MO KIO AVE 2,1.3779008,103.8364203,"1 22m 40.4429s N, 103 50m 11.1131s E"
510,SELEGIE RD,1.299678,103.8495441,"1 17m 58.8408s N, 103 50m 58.3588s E"
511,SIMS AVE,1.3190231,103.9039559,"1 19m 8.48316s N, 103 54m 14.2412s E"
512,REDHILL LANE,1.2866736,103.8187637,"1 17m 12.025s N, 103 49m 7.54932s E"
513,KING GEORGE'S AVE,1.3077403,103.8595588,"1 18m 27.8651s N, 103 51m 34.4117s E"
514,PASIR RIS ST 41,1.3722168,103.957904,"1 22m 19.9805s N, 103 57m 28.4544s E"
515,PUNGGOL WALK,1.4010834,103.8986648,"1 24m 3.90024s N, 103 53m 55.1933s E"
516,LIM LIAK ST,1.2852657,103.8315003,"1 17m 6.95652s N, 103 49m 53.4011s E"
517,JALAN BERSEH,1.3070445,103.8576751,"1 18m 25.3602s N, 103 51m 27.6304s E"
518,SENGKANG WEST WAY,1.3953191,103.882177,"1 23m 43.1488s N, 103 52m 55.8372s E"
519,BUANGKOK GREEN,1.379241,103.8813464,"1 22m 45.2676s N, 103 52m 52.847s E"
520,SEMBAWANG WAY,1.4479222,103.8136138,"1 26m 52.5199s N, 103 48m 49.0097s E"
521,PUNGGOL WAY,1.4132632,103.9009328,"1 24m 47.7475s N, 103 54m 3.35808s E"
522,YISHUN ST 31,1.431399,103.8455371,"1 25m 53.0364s N, 103 50m 43.9336s E"
523,TECK WHYE CRES,1.3822136,103.7502594,"1 22m 55.969s N, 103 45m 0.93384s E"
524,KRETA AYER RD,1.2812987,103.8433271,"1 16m 52.6753s N, 103 50m 35.9776s E"
525,MONTREAL LINK,1.4501291,103.8275453,"1 27m 0.46476s N, 103 49m 39.1631s E"
526,UPPER SERANGOON CRES,1.3775486,103.9025749,"1 22m 39.175s N, 103 54m 9.26964s E"
527,SUMANG LINK,1.4111794,103.8985983,"1 24m 40.2458s N, 103 53m 54.9539s E"
528,SENGKANG EAST AVE,1.389954,103.8848358,"1 23m 23.8344s N, 103 53m 5.40888s E"
529,YISHUN AVE 1,1.4249121,103.857826,"1 25m 29.6836s N, 103 51m 28.1736s E"
530,ANCHORVALE CRES,1.3964871,103.8929513,"1 23m 47.3536s N, 103 53m 34.6247s E"
531,YUNG KUANG RD,1.3314268,103.7235226,"1 19m 53.1365s N, 103 43m 24.6814s E"
532,ANCHORVALE ST,1.3966654,103.89237,"1 23m 47.9954s N, 103 53m 32.532s E"
533,TAMPINES CENTRAL 8,1.35603,103.9403133,"1 21m 21.708s N, 103 56m 25.1279s E"
534,YISHUN ST 51,1.4165474,103.8399968,"1 24m 59.5706s N, 103 50m 23.9885s E"
535,UPPER SERANGOON VIEW,1.3738348,103.9021499,"1 22m 25.8053s N, 103 54m 7.73964s E"
536,TAMPINES AVE 1,1.3481655,103.9301186,"1 20m 53.3958s N, 103 55m 48.427s E"
537,BEDOK RESERVOIR CRES,1.3369521,103.9208651,"1 20m 13.0276s N, 103 55m 15.1144s E"
538,ANG MO KIO ST 61,1.3821791,103.840551,"1 22m 55.8448s N, 103 50m 25.9836s E"
539,DAWSON RD,1.2925703,103.810316,"1 17m 33.2531s N, 103 48m 37.1376s E"
540,FERNVALE ST,1.3984982,103.8774636,"1 23m 54.5935s N, 103 52m 38.869s E"
541,SENG POH RD,1.2848984,103.8329619,"1 17m 5.63424s N, 103 49m 58.6628s E"
542,HOUGANG ST 32,1.363442,103.895511,"1 21m 48.3912s N, 103 53m 43.8396s E"
543,TAMPINES ST 86,1.3534178,103.9294461,"1 21m 12.3041s N, 103 55m 46.006s E"
544,HENDERSON RD,1.2834734,103.8202059,"1 17m 0.50424s N, 103 49m 12.7412s E"
545,SUMANG WALK,1.4064635,103.8951798,"1 24m 23.2686s N, 103 53m 42.6473s E"
546,CHOA CHU KANG AVE 7,1.3754266,103.746434,"1 22m 31.5358s N, 103 44m 47.1624s E"
547,KEAT HONG CL,1.3745486,103.7422326,"1 22m 28.375s N, 103 44m 32.0374s E"
548,JURONG WEST CENTRAL 3,1.3405215,103.7059156,"1 20m 25.8774s N, 103 42m 21.2962s E"
549,WOODLANDS CTR RD,1.4398121,103.7710821,"1 26m 23.3236s N, 103 46m 15.8956s E"
550,MARINE PARADE CENTRAL,1.3022315,103.907662,"1 18m 8.0334s N, 103 54m 27.5832s E"
551,ROCHOR RD,1.3006033,103.8559066,"1 18m 2.17188s N, 103 51m 21.2638s E"
552,JALAN PASAR BARU,1.3201,103.8873,"1 19m 12.36s N, 103 53m 14.28s E"
553,SELETAR WEST FARMWAY 6,1.3964684,103.8707059,"1 23m 47.2862s N, 103 52m 14.5412s E"
554,MARGARET DRIVE,1.2964806,103.8108893,"1 17m 47.3302s N, 103 48m 39.2015s E"
555,EAST COAST RD,1.3099621,103.9170189,"1 18m 35.8636s N, 103 55m 1.26804s E"
556,KAMPONG BAHRU HILL,1.4175875,103.96954807407631,"1 25m 3.315s N, 103 58m 10.3731s E"
557,GEYLANG EAST AVE 2,1.3169779,103.8884919,"1 19m 1.12044s N, 103 53m 18.5708s E"
558,HILLVIEW AVE,1.3586324,103.7633222,"1 21m 31.0766s N, 103 45m 47.9599s E"
559,OUTRAM PK,1.2808682,103.83988410749788,"1 16m 51.1255s N, 103 50m 23.5828s E"
560,SHORT ST,37.560402,-97.271318,"37 33m 37.4472s N, 97 16m 16.7448s W"
561,HU CHING RD,1.3290208,103.7243321,"1 19m 44.4749s N, 103 43m 27.5956s E"
562,LIM CHU KANG RD,1.4284054,103.7062974,"1 25m 42.2594s N, 103 42m 22.6706s E"
563,NILE RD,1.2828,103.8175,"1 16m 58.08s N, 103 49m 3s E"
564,JALAN MEMBINA BARAT,1.283347,103.826121,"1 17m 0.0492s N, 103 49m 34.0356s E"
565,BUANGKOK STH FARMWAY 1,1.38838781397,103.987491735,"1 23m 18.1961s N, 103 59m 14.9702s E"
566,ALEXANDRA RD,1.2735287,103.8020495,"1 16m 24.7033s N, 103 48m 7.3782s E"
567,SEMBAWANG RD,1.453349,103.8317688,"1 27m 12.0564s N, 103 49m 54.3677s E"
568,OUTRAM HILL,1.2842161,103.8362932,"1 17m 3.17796s N, 103 50m 10.6555s E"
