,street_name,Latitude,Longitude
0,ANG MO KIO AVE 10,1.3676017,103.8568442
1,ANG MO KIO AVE 4,1.3823185,103.8387061
2,ANG MO KIO AVE 5,1.3768247,103.8475557
3,ANG MO KIO AVE 1,1.3643546,103.8436418
4,ANG MO KIO AVE 3,1.3696908,103.8409057
5,ANG MO KIO AVE 9,1.3827747,103.8394374
6,ANG MO KIO AVE 8,1.3784539,103.84742
7,ANG MO KIO AVE 6,1.3832578,103.8441199
8,ANG MO KIO ST 52,1.3730573,103.8507324
9,BEDOK NORTH AVE 4,1.3340399,103.9414261
10,BEDOK NORTH AVE 1,1.3297469,103.9264326
11,BEDOK NORTH RD,1.3313413,103.9337502
12,BEDOK STH AVE 1,1.314061,103.9336214
13,BEDOK RESERVOIR RD,1.3296754,103.9048357
14,CHAI CHEE ST,1.3274218,103.9187437
15,BEDOK NORTH ST 3,1.3339821,103.9303638
16,BEDOK STH RD,1.3198453,103.935962
17,CHAI CHEE AVE,1.325289,103.9232643
18,NEW UPPER CHANGI RD,1.3267815,103.9459389
19,CHAI CHEE DRIVE,1.3258683,103.9193462
20,BISHAN ST 23,1.3569767,103.8479524
21,BEDOK STH AVE 2,1.3247239,103.9371862
22,KIM TIAN RD,1.2846604,103.8293989
23,BEDOK NORTH AVE 3,1.3313564,103.9343617
24,BEDOK RESERVOIR VIEW,1.3376794,103.9350542
25,CHAI CHEE RD,1.326493,103.9235846
26,LENGKONG TIGA,1.323155,103.9134669
27,BEDOK CENTRAL,1.3260581,103.9352645
28,JALAN DAMAI,-5.406307,122.626192
29,BEDOK NORTH AVE 2,1.3313193,103.9303694
30,BEDOK STH AVE 3,1.3264785,103.9440644
31,SIN MING RD,1.3538309,103.8359877
32,SIN MING AVE,1.3603001,103.8320554
33,BISHAN ST 12,1.3480256,103.849829
34,BISHAN ST 13,1.3508769,103.8523645
35,BISHAN ST 22,1.3599872,103.8438395
36,BISHAN ST 24,1.3563979,103.8443817
37,BRIGHT HILL DRIVE,1.3601554,103.8324248
38,SHUNFU RD,1.3513259,103.8400297
39,BUKIT BATOK ST 34,1.3637268,103.7500273
40,BUKIT BATOK ST 51,1.3556782,103.7498154
41,BUKIT BATOK ST 11,1.3499936,103.7423305
42,BUKIT BATOK ST 52,1.3543135,103.7518088
43,BUKIT BATOK ST 21,1.3468302,103.750573
44,BUKIT BATOK EAST AVE 5,1.3548853,103.7541381
45,BUKIT BATOK WEST AVE 6,1.354495,103.7418444
46,BUKIT BATOK CENTRAL,1.3515765,103.7483905
47,BUKIT BATOK WEST AVE 8,1.358546,103.7421969
48,BUKIT BATOK EAST AVE 4,1.3496472,103.7606908
49,BUKIT BATOK ST 31,1.3598218,103.7515796
50,BUKIT BATOK ST 25,1.346703,103.7609439
51,BUKIT BATOK EAST AVE 3,1.3375316,103.7604656
52,BUKIT BATOK WEST AVE 5,1.3564848,103.7480422
53,CANTONMENT RD,1.274558,103.8412735
54,BUKIT BATOK ST 24,1.3426301,103.7567789
55,JALAN BUKIT HO SWEE,1.287298,103.8292451
56,TELOK BLANGAH DRIVE,1.2728382,103.8090889
57,BEO CRES,1.2891495,103.82676999065912
58,TELOK BLANGAH CRES,1.2774161,103.81906217374383
59,TELOK BLANGAH RISE,1.2734284,103.820562
60,TELOK BLANGAH WAY,1.2746254,103.8227681
61,JALAN BUKIT MERAH,1.2860375,103.8088205
62,JALAN KLINIK,1.2880059,103.8288153
63,TELOK BLANGAH HTS,1.2779863,103.8077696
64,BUKIT MERAH VIEW,1.28350915,103.82332492999029
65,INDUS RD,1.2900221,103.8296424
66,BUKIT MERAH LANE 1,1.2859726,103.8041771
67,TELOK BLANGAH ST 31,1.2741667,103.8065407
68,MOH GUAN TER,1.2836697,103.8301452
69,HAVELOCK RD,1.2867631,103.8448641
70,HENDERSON CRES,1.289199,103.8220891
71,BUKIT PURMEI RD,1.2720967,103.8245389
72,DEPOT RD,1.2813092,103.8021522
73,JALAN RUMAH TINGGI,1.2890059,103.8091828
74,DELTA AVE,1.2920193,103.8278838
75,JALAN MEMBINA,1.2859312,103.8272492
76,REDHILL RD,1.2878448,103.8146371
77,LENGKOK BAHRU,1.2879854,103.8147158
78,ZION RD,1.2918193,103.8324147
79,PETIR RD,1.376504,103.7684897
80,PENDING RD,1.3771859,103.7718122
81,BANGKIT RD,1.3793607,103.7734075
82,SEGAR RD,1.3890631,103.7700339
83,JELAPANG RD,1.3849107,103.7642241
84,SENJA RD,1.3869841,103.7627954
85,FAJAR RD,1.3842446,103.7703137
86,BUKIT PANJANG RING RD,1.3813053,103.7632918
87,CIRCUIT RD,1.326177,103.8883999
88,SENJA LINK,1.3859257,103.7635851
89,LOMPANG RD,1.3797237,103.7655982
90,GANGSA RD,1.3800705,103.7676819
91,TOH YI DRIVE,1.3359983,103.7712799
92,FARRER RD,1.31748125,103.80756259256168
93,JALAN KUKOH,1.2876992,103.83958
94,ROWELL RD,1.3077179,103.8561979
95,WATERLOO ST,1.2994261,103.852085
96,NEW MKT RD,1.2877055,103.8452162
97,TANJONG PAGAR PLAZA,1.2755703999999999,103.84299324043488
98,QUEEN ST,1.3026279,103.8560759
99,BAIN ST,1.2975232,103.8534339
100,TECK WHYE LANE,1.3798533,103.7540183
101,CHOA CHU KANG AVE 4,1.3834212,103.7412101
102,CHOA CHU KANG AVE 3,1.381289,103.742961
103,CHOA CHU KANG CRES,1.3999138,103.7506964
104,CHOA CHU KANG ST 54,1.3955363,103.7502777
105,CHOA CHU KANG CENTRAL,1.3831345,103.7445107
106,JALAN TECK WHYE,1.3798765,103.7578395
107,CHOA CHU KANG ST 62,1.3990127,103.7456225
108,CHOA CHU KANG NORTH 6,1.3966588,103.7458789
109,CHOA CHU KANG DRIVE,1.3863325,103.7461087
110,CHOA CHU KANG NORTH 5,1.392146,103.7488568
111,CHOA CHU KANG ST 52,1.3960629,103.7454848
112,CHOA CHU KANG AVE 2,1.3773371,103.7401825
113,CLEMENTI WEST ST 2,1.3034608,103.7628617
114,WEST COAST RD,1.3039138,103.7648832
115,CLEMENTI WEST ST 1,1.3043099,103.7646036
116,CLEMENTI AVE 4,1.3168202,103.7657555
117,CLEMENTI AVE 5,1.317397,103.7688249
118,CLEMENTI ST 11,1.3151003,103.7652311
119,CLEMENTI AVE 2,1.3064695,103.7633806
120,CLEMENTI AVE 3,1.3141471,103.7634411
121,CLEMENTI AVE 1,1.3075943,103.7691926
122,PUNGGOL CENTRAL,1.4085085,103.8919886
123,COMMONWEALTH AVE WEST,1.3162684,103.7648927
124,BALAM RD,1.3298929,103.8867353
125,MACPHERSON LANE,1.3319937,103.8852395
126,EUNOS CRES,1.3207219000000001,103.90366668019519
127,UBI AVE 1,1.326258,103.8981272
128,HAIG RD,1.3097691,103.8976116
129,OLD AIRPORT RD,1.3078561,103.8861654
130,GEYLANG EAST AVE 1,1.3176326,103.8856256
131,SIMS DRIVE,1.3168076,103.8779846
132,PIPIT RD,1.3236366,103.8889641
133,GEYLANG EAST CENTRAL,1.32027145,103.88738263636108
134,EUNOS RD 5,1.318647,103.8965168
135,CASSIA CRES,1.3098466,103.884696
136,BUANGKOK CRES,1.3840378,103.8833393
137,HOUGANG AVE 3,1.3398661,103.8931676
138,HOUGANG AVE 8,1.3694513,103.87989
139,HOUGANG AVE 1,1.3556123,103.8900414
140,HOUGANG AVE 5,1.3657065,103.897866
141,HOUGANG ST 61,1.3741656,103.887698
142,HOUGANG ST 11,1.3520035,103.8796707
143,HOUGANG AVE 7,1.3705367,103.9005966
144,HOUGANG AVE 4,1.3776291,103.8845127
145,COMMONWEALTH CL,1.3046601,103.7987842
146,HOUGANG AVE 2,1.369344,103.880058
147,LORONG AH SOO,1.3520481,103.8845867
148,HOUGANG ST 92,1.3749933,103.8816732
149,HOUGANG ST 52,1.3775259,103.8889484
150,HOUGANG AVE 10,1.3729285,103.8942011
151,HOUGANG ST 51,1.3775259,103.8889484
152,UPPER SERANGOON RD,1.3499218,103.8739955
153,HOUGANG CENTRAL,1.3710492,103.89435758379814
154,HOUGANG ST 91,1.3771311,103.884482
155,BUANGKOK LINK,1.3795782,103.8814051
156,HOUGANG ST 31,1.3635317,103.8895347
157,PANDAN GDNS,1.31941495,103.74837287818568
158,TEBAN GDNS RD,1.3209973,103.7384081
159,JURONG EAST ST 24,1.3430954,103.7416232
160,JURONG EAST ST 21,1.3393303,103.7418674
161,JURONG EAST AVE 1,1.3450544,103.7324883
162,JURONG EAST ST 13,1.3353423,103.7387437
163,JURONG EAST ST 32,1.3480409,103.7325621
164,TOH GUAN RD,1.3317141,103.7470242
165,JURONG WEST ST 93,1.340802,103.6927096
166,BOON LAY AVE,1.3487417,103.7111179
167,HO CHING RD,1.3342784,103.7249346
168,BOON LAY DRIVE,1.3428477,103.711129
169,TAO CHING RD,1.3327685,103.7249411
170,JURONG WEST ST 91,1.3420393,103.6871915
171,JURONG WEST ST 42,1.3525626,103.7180653
172,JURONG WEST ST 92,1.3397258,103.6904298
173,BOON LAY PL,1.34640455,103.7122848123319
174,JURONG WEST ST 52,1.3472312,103.7178308
175,JURONG WEST ST 81,1.3444497,103.6941555
176,YUNG SHENG RD,1.3341299,103.7207053
177,JURONG WEST ST 25,1.353982,103.7047261
178,JURONG WEST ST 73,1.3480442,103.6999277
179,JURONG WEST ST 72,1.3466949,103.6978698
180,JURONG WEST AVE 3,1.3531692,103.705033
181,JURONG WEST AVE 5,1.3421726,103.6934722
182,YUNG HO RD,1.3266282,103.7247867
183,JURONG WEST ST 74,1.3494248,103.6992496
184,JURONG WEST AVE 1,1.3504726,103.7170794
185,JURONG WEST ST 71,1.3433294,103.6949759
186,JURONG WEST ST 61,1.3351585,103.6988493
187,JURONG WEST ST 65,1.3439813,103.703546
188,TAH CHING RD,1.3365809,103.7216909
189,JURONG WEST CENTRAL 1,1.3412618,103.7047643
190,JURONG WEST ST 64,1.3424506,103.7037956
191,JURONG WEST ST 62,1.3409755,103.7032635
192,JURONG WEST ST 41,1.3470642,103.7232876
193,JURONG WEST ST 24,1.3511437,103.7085022
194,JALAN BATU,1.301128,103.8829812
195,JALAN BAHAGIA,1.3277621,103.8571581
196,LORONG LIMAU,1.3246835,103.8543359
197,ST. GEORGE'S RD,1.3219991,103.8634944
198,KALLANG BAHRU,1.315411,103.8645548
199,DORSET RD,1.3148077,103.8521679
200,GEYLANG BAHRU,1.3201475,103.8717615
201,BENDEMEER RD,1.3252974,103.8681201
202,WHAMPOA DRIVE,1.3226521,103.8547193
203,UPPER BOON KENG RD,1.3137764,103.8709028
204,RACE COURSE RD,1.3120873,103.8530984
205,OWEN RD,1.3166829,103.8503694
206,NORTH BRIDGE RD,1.2991136,103.8560806
207,TOWNER RD,1.3206001,103.8578367
208,FARRER PK RD,1.3128704,103.8519979
209,MCNAIR RD,1.3181466,103.857083
210,JALAN TENTERAM,1.3280501,103.8583436
211,BOON KENG RD,1.3130672,103.8676393
212,JALAN RAJAH,1.327694,103.8545846
213,MARINE DRIVE,1.3044561,103.9085707
214,MARINE CRES,1.3049132,103.9119548
215,MARINE TER,1.3053872,103.9169872
216,CHANGI VILLAGE RD,1.3874445,103.9872927
217,PASIR RIS ST 71,1.3764687,103.9360759
218,PASIR RIS ST 11,1.3651789,103.9623094
219,PASIR RIS DRIVE 3,1.3796545,103.9417422
220,PASIR RIS DRIVE 6,1.3733321,103.956317
221,PASIR RIS ST 21,1.3732743,103.9609293
222,PASIR RIS DRIVE 4,1.3732557,103.9608206
223,PASIR RIS ST 53,1.3736297,103.9478921
224,PASIR RIS DRIVE 10,1.380112,103.9384943
225,PASIR RIS ST 52,1.3746686,103.9459817
226,PASIR RIS ST 12,1.3676522,103.9595827
227,PASIR RIS ST 51,1.3692524,103.9484506
228,PASIR RIS ST 72,1.3805112,103.9362128
229,PASIR RIS DRIVE 1,1.376378,103.9391979
230,PUNGGOL FIELD,1.3984048,103.9072285
231,EDGEDALE PLAINS,1.3943247,103.9103099
232,PUNGGOL FIELD WALK,1.3920159,103.9126644
233,EDGEFIELD PLAINS,1.3976389,103.9068049
234,PUNGGOL RD,1.4092895,103.9097272
235,PUNGGOL EAST,1.3969194,103.9179481
236,PUNGGOL DRIVE,1.3979973,103.9188085
237,PUNGGOL PL,1.4043366,103.9038354
238,STIRLING RD,1.2977071,103.8024639
239,MEI LING ST,1.2940781,103.8039247
240,COMMONWEALTH CRES,1.3068452,103.80022692062337
241,COMMONWEALTH DRIVE,1.3000135,103.7973615
242,GHIM MOH RD,1.3116025,103.7867533
243,DOVER RD,1.3044198,103.7813791
244,HOLLAND AVE,1.3085719,103.7948342
245,STRATHMORE AVE,1.2935048,103.8110261
246,HOLLAND DRIVE,1.3122576,103.7919776
247,GHIM MOH LINK,1.3084725,103.7866606
248,CLARENCE LANE,1.2919091,103.8140283
249,DOVER CRES,1.3040731,103.7818274
250,SEMBAWANG DRIVE,1.4453661,103.8200608
251,SEMBAWANG CL,1.4484087,103.8165876
252,MONTREAL DRIVE,1.4507919,103.8253042
253,ADMIRALTY LINK,1.4562348,103.8183584
254,ADMIRALTY DRIVE,1.452055,103.8202935
255,SEMBAWANG CRES,1.4481451,103.8145197
256,CANBERRA RD,1.4469884,103.8227278
257,FERNVALE RD,1.3948295,103.875783
258,COMPASSVALE LANE,1.3847888,103.8971034
259,ANCHORVALE RD,1.3969613,103.887776
260,RIVERVALE DRIVE,1.3887159,103.9060742
261,RIVERVALE CRES,1.3920559,103.9070585
262,SENGKANG EAST WAY,1.3884457,103.906085
263,RIVERVALE ST,1.3887037,103.902154
264,RIVERVALE WALK,1.3840515,103.9000606
265,FERNVALE LANE,1.39002,103.8735941
266,ANCHORVALE LINK,1.3940784,103.890576
267,COMPASSVALE RD,1.3916513,103.897983
268,COMPASSVALE CRES,1.3953684,103.8992134
269,JALAN KAYU,1.3923332,103.8722069
270,COMPASSVALE WALK,1.3869718,103.8998933
271,COMPASSVALE DRIVE,1.3866439,103.9004244
272,COMPASSVALE LINK,1.3843684,103.8952937
273,COMPASSVALE BOW,1.3826096,103.8915212
274,SENGKANG CENTRAL,1.3815363,103.8930357
275,ANCHORVALE LANE,1.3918577,103.8865184
276,ANCHORVALE DRIVE,1.390511,103.8895637
277,COMPASSVALE ST,1.39613,103.8945619
278,SERANGOON AVE 4,1.3557437,103.8713719
279,LORONG LEW LIAN,1.3514564,103.8757119
280,SERANGOON AVE 2,1.3552437,103.8677935
281,SERANGOON NORTH AVE 1,1.369237,103.8736126
282,SERANGOON AVE 1,1.3475649,103.8744403
283,SERANGOON CENTRAL,1.3535142,103.8716163518423
284,SERANGOON NORTH AVE 4,1.3726139,103.8736497
285,TAMPINES ST 22,1.3495407,103.9536182
286,TAMPINES ST 41,1.3582131,103.9463412
287,TAMPINES AVE 4,1.3544826,103.9463436
288,TAMPINES ST 44,1.3609365,103.9542202
289,TAMPINES ST 81,1.3484091,103.9361069
290,TAMPINES ST 11,1.3471894,103.9447013
291,TAMPINES ST 23,1.3537838,103.9550918
292,TAMPINES ST 91,1.3478628,103.940315
293,TAMPINES ST 21,1.3552692,103.948199
294,TAMPINES ST 83,1.3512935,103.9336735
295,TAMPINES ST 42,1.358605,103.9545739
296,TAMPINES ST 71,1.3585006,103.9341191
297,TAMPINES ST 45,1.3624096,103.955691
298,TAMPINES ST 34,1.3553472,103.9606664
299,TOA PAYOH NORTH,1.3416548000000001,103.8464593736629
300,TAMPINES ST 82,1.3531482,103.9372219
301,TAMPINES AVE 9,1.3603978,103.938165
302,SIMEI ST 1,1.343228,103.9516301
303,SIMEI ST 5,1.3446617,103.9534754
304,TAMPINES ST 72,1.3602214,103.9346527
305,TAMPINES ST 84,1.3528162,103.9322309
306,SIMEI ST 2,1.344199,103.9554963
307,TAMPINES CENTRAL 7,1.3590165,103.9421926
308,TAMPINES ST 33,1.3533091,103.9579475
309,TAMPINES ST 32,1.3537743,103.9577272
310,TAMPINES AVE 5,1.3463097,103.9431128
311,LORONG 5 TOA PAYOH,1.3372441,103.8520887
312,LORONG 7 TOA PAYOH,1.3375065,103.8535872
313,LORONG 4 TOA PAYOH,1.3364855,103.8501438
314,LORONG 1 TOA PAYOH,1.3372437,103.8435121
315,TOA PAYOH EAST,1.3342747,103.8567495
316,POTONG PASIR AVE 1,1.3359313,103.864586
317,LORONG 8 TOA PAYOH,1.3397755,103.857539
318,LORONG 3 TOA PAYOH,1.338247,103.8472346
319,POTONG PASIR AVE 3,1.3358054,103.8649
320,JOO SENG RD,1.3373789,103.8822618
321,LORONG 2 TOA PAYOH,1.3344892,103.8469774
322,TOA PAYOH CENTRAL,1.3326741,103.85052221136597
323,MARSILING DRIVE,1.4437577,103.7731784
324,WOODLANDS ST 13,1.4355016,103.7789313
325,WOODLANDS DRIVE 52,1.4332069,103.7992763
326,WOODLANDS ST 41,1.42752,103.7735293
327,MARSILING CRES,1.4488393,103.7754988
328,WOODLANDS ST 83,1.4390696,103.7920967
329,WOODLANDS CIRCLE,1.4422997,103.7988617
330,WOODLANDS DRIVE 40,1.4417077,103.7953695
331,WOODLANDS ST 31,1.4302688,103.7754506
332,WOODLANDS DRIVE 16,1.430358,103.7992814
333,WOODLANDS ST 81,1.4425691,103.7888622
334,WOODLANDS RING RD,1.436993,103.7975138
335,WOODLANDS DRIVE 53,1.4330392,103.7972655
336,WOODLANDS DRIVE 62,1.4392459,103.805544
337,WOODLANDS DRIVE 70,1.4401658,103.7985222
338,WOODLANDS DRIVE 42,1.4369878,103.79746
339,WOODLANDS DRIVE 50,1.4354097,103.7909752
340,WOODLANDS AVE 6,1.4294584,103.7979671
341,WOODLANDS DRIVE 14,1.433499,103.7898867
342,WOODLANDS AVE 1,1.4280562,103.7923223
343,WOODLANDS AVE 5,1.4342973,103.7856538
344,MARSILING RISE,1.4381712,103.7822464
345,WOODLANDS CRES,1.4466671,103.8019736
346,WOODLANDS DRIVE 73,1.442578,103.8048185
347,WOODLANDS DRIVE 44,1.4317591,103.7938399
348,YISHUN RING RD,1.4243404,103.8450699
349,YISHUN AVE 3,1.4231327,103.8308992
350,YISHUN ST 11,1.4304225,103.8334205
351,YISHUN AVE 4,1.4160578,103.8397203
352,YISHUN ST 22,1.4365851,103.8394404
353,YISHUN ST 71,1.4263794,103.8279984
354,YISHUN AVE 5,1.4304131,103.8297751
355,YISHUN ST 21,1.4352144,103.8362337
356,YISHUN ST 41,1.4193466,103.8456525
357,YISHUN ST 61,1.4180955,103.8386676
358,YISHUN AVE 6,1.4261421,103.8496526
359,YISHUN AVE 11,1.425057,103.8442624
360,YISHUN CENTRAL,1.42645065,103.83720383435042
361,YISHUN ST 81,1.4152526,103.8370213
362,YISHUN ST 72,1.4287667,103.8326043
363,YISHUN AVE 2,1.4248635,103.8352035
364,ANG MO KIO ST 32,1.3635834,103.8490867
365,ANG MO KIO ST 31,1.3659744,103.8499658
366,BEDOK NORTH ST 2,1.3300119,103.9346388
367,BEDOK NORTH ST 1,1.3270503,103.9304529
368,JALAN TENAGA,1.3314793,103.9070574
369,BEDOK NORTH ST 4,1.3325714,103.9397077
370,BUKIT BATOK WEST AVE 4,1.3650447,103.7470719
371,CANTONMENT CL,1.2750036,103.8402184
372,BOON TIONG RD,1.2864646,103.8320221
373,SPOTTISWOODE PK RD,1.2734521,103.8394071
374,REDHILL CL,1.2851465,103.8174162
375,KIM TIAN PL,1.3114355,103.8762403
376,CASHEW RD,1.3696059,103.7646971
377,QUEEN'S RD,1.3183905,103.8073624
378,CHANDER RD,1.30917,103.8530903
379,KELANTAN RD,1.3057284,103.8563681
380,SAGO LANE,1.2811686,103.8444047
381,UPPER CROSS ST,1.2878588,103.8417074
382,CHIN SWEE RD,1.2879366,103.8410855
383,SMITH ST,37.706114,-97.401073
384,TECK WHYE AVE,1.381568,103.7531023
385,CHOA CHU KANG ST 51,1.3918953,103.7424097
386,CHOA CHU KANG AVE 5,1.3752682,103.7401485
387,CHOA CHU KANG AVE 1,1.3767337,103.7407287
388,WEST COAST DRIVE,1.3169975,103.7565925
389,PAYA LEBAR WAY,1.3239298,103.8850491
390,ALJUNIED CRES,1.3193329,103.8857789
391,JOO CHIAT RD,1.3041225,103.9063775
392,PINE CL,1.3088432,103.8825838
393,HOUGANG ST 22,1.3556681,103.8910059
394,HOUGANG AVE 9,1.3749681,103.8801684
395,HOUGANG AVE 6,1.3733707,103.892823
396,HOUGANG ST 21,1.3594517,103.8888817
397,JURONG WEST ST 75,1.3463675,103.7020115
398,KANG CHING RD,1.3390269,103.721943
399,KAMPONG KAYU RD,1.3032065,103.8831258
400,CRAWFORD LANE,1.3048464,103.8625836
401,WHAMPOA WEST,1.3200862,103.8647036
402,BEACH RD,1.3030517,103.8622669
403,CAMBRIDGE RD,37.592326,-97.526124
404,ST. GEORGE'S LANE,1.3223273,103.8617865
405,JELLICOE RD,1.3085687,103.8629567
406,ELIAS RD,1.3732198,103.9402901
407,HOLLAND CL,1.3073048,103.7960335
408,TANGLIN HALT RD,1.3005279,103.7983595
409,COMMONWEALTH AVE,1.3024928,103.7980624
410,WELLINGTON CIRCLE,1.452079,103.8203539
411,CANBERRA LINK,1.4446381,103.8291537
412,SENGKANG WEST AVE,1.3915181,103.8825691
413,SENGKANG EAST RD,1.382487,103.8890709
414,SERANGOON CENTRAL DRIVE,1.3546775,103.8716025
415,SERANGOON AVE 3,1.3529215,103.870596
416,SERANGOON NORTH AVE 3,1.373346,103.8712819
417,TAMPINES AVE 8,1.3535066,103.9310827
418,TAMPINES ST 24,1.3564953,103.9519228
419,TAMPINES ST 12,1.3489353,103.9454484
420,SIMEI LANE,1.3430495,103.957905
421,SIMEI ST 4,1.342092,103.9580175
422,LORONG 6 TOA PAYOH,1.3329227,103.855901
423,KIM KEAT LINK,1.3311844,103.8550185
424,MARSILING LANE,1.444948,103.7762256
425,WOODLANDS ST 82,1.444474,103.7933728
426,WOODLANDS DRIVE 60,1.4469862,103.7997689
427,WOODLANDS AVE 3,1.4315466,103.7689234
428,WOODLAND DRIVE 75,1.4420127,103.8076149
429,WOODLANDS AVE 4,1.4453152,103.7927675
430,WOODLANDS ST 32,1.4311504,103.7799985
431,YISHUN AVE 7,1.4373819,103.8308881
432,ANG MO KIO ST 11,1.3710204,103.8348104
433,BISHAN ST 11,1.3465609,103.8521773
434,BUKIT BATOK WEST AVE 2,1.3586898,103.7471721
435,BUKIT BATOK ST 32,1.3651851,103.7487672
436,BUKIT BATOK ST 33,1.3619204,103.7469144
437,BUKIT BATOK ST 22,1.344382,103.7491765
438,BUKIT BATOK WEST AVE 7,1.3652769,103.7463748
439,HOY FATT RD,1.2864118,103.8103014
440,SILAT AVE,1.2763979,103.8305709
441,EVERTON PK,1.2771286000000002,103.8393679151902
442,BUKIT MERAH CENTRAL,1.28281325,103.81674298893428
443,JELEBU RD,1.3803064,103.763659
444,EMPRESS RD,1.3168431,103.8067178
445,VEERASAMY RD,1.3077444,103.8530048
446,CHOA CHU KANG ST 64,1.3975043,103.7500658
447,CHOA CHU KANG ST 53,1.3916914,103.7472554
448,CHOA CHU KANG NORTH 7,1.4005249,103.7486967
449,CLEMENTI AVE 6,1.3256737,103.7641107
450,GEYLANG SERAI,1.3162526,103.8975689
451,CLEMENTI ST 13,1.3239392,103.7708881
452,JALAN TIGA,1.3087324,103.8841438
453,ALJUNIED RD,1.3259736,103.8807041
454,157 CORPORATION DRIVE,1.3374576,103.7175835
455,YUNG AN RD,1.3358599,103.7196616
456,JALAN MA'MOR,1.3283084,103.8577785
457,WHAMPOA RD,1.3254354,103.8570944
458,LORONG 3 GEYLANG,1.3124072,103.8741231
459,PASIR RIS ST 13,1.3634329,103.9625193
460,QUEEN'S CL,1.2939254,103.8005498
461,DOVER CL EAST,1.3038397,103.7861
462,SEMBAWANG VISTA,1.4470896,103.8192327
463,TAMPINES ST 43,1.3586597,103.9523979
464,SIMEI RD,1.3398248,103.960775
465,KIM KEAT AVE,1.3324631,103.8596967
466,UPPER ALJUNIED LANE,1.3350239,103.8799336
467,POTONG PASIR AVE 2,1.3322371,103.8670407
468,WOODLANDS DRIVE 72,1.4435007,103.8043718
469,MARSILING RD,1.4385868,103.7762958
470,WOODLANDS DRIVE 71,1.4389971,103.8005013
471,YISHUN AVE 9,1.4310689,103.8391126
472,YISHUN ST 20,1.4360609,103.8358822
473,ANG MO KIO ST 21,1.3709728,103.8351999
474,TIONG BAHRU RD,1.2886625,103.8198921
475,KLANG LANE,1.3084848,103.8522978
476,CHOA CHU KANG LOOP,1.384214,103.7434613
477,CLEMENTI ST 14,1.3228445,103.7685144
478,SIMS PL,1.3158586,103.878363
479,JURONG EAST ST 31,1.3463784,103.731592
480,YUAN CHING RD,1.3432791,103.721581
481,CORPORATION DRIVE,1.3373839,103.7176351
482,WHAMPOA STH,1.3241061,103.8670139
483,TESSENSOHN RD,1.3139439,103.8546605
484,JALAN DUSUN,-5.5911199,122.7313624
485,QUEENSWAY,1.3023752,103.8014794
486,FERNVALE LINK,1.395698,103.8791298
487,KIM PONG RD,1.2839264,103.8301604
488,KIM CHENG ST,1.2845581,103.8319423
489,SAUJANA RD,1.3832109,103.7661642
490,BUFFALO RD,1.3072583,103.8500308
491,CLEMENTI ST 12,1.3228185,103.7700351
492,DAKOTA CRES,1.306679,103.8866899
493,JURONG WEST ST 51,1.3491004,103.7198939
494,FRENCH RD,1.3071728,103.8613904
495,GLOUCESTER RD,1.3120525,103.8529403
496,KAMPONG ARANG RD,1.3004951,103.8825186
497,MOULMEIN RD,1.3194206,103.8510063
498,KENT RD,1.316695,103.8525831
499,AH HOOD RD,1.3275506,103.8457531
500,SERANGOON NORTH AVE 2,1.3687323,103.8741669
501,TAMPINES CENTRAL 1,1.353727,103.9427068
502,TAMPINES AVE 7,1.3566625,103.946414
503,LORONG 1A TOA PAYOH,1.3370851,103.8446577
504,WOODLANDS AVE 9,1.447736,103.7972477
505,YISHUN CENTRAL 1,1.424791,103.8367916
506,LOWER DELTA RD,1.2858915,103.8251665
507,JALAN DUA,5.6393874,100.4935567
508,WOODLANDS ST 11,1.4327211,103.7756159
509,ANG MO KIO AVE 2,1.3779008,103.8364203
510,SELEGIE RD,1.299678,103.8495441
511,SIMS AVE,1.3190231,103.9039559
512,REDHILL LANE,1.2866736,103.8187637
513,KING GEORGE'S AVE,1.3077403,103.8595588
514,PASIR RIS ST 41,1.3722168,103.957904
515,PUNGGOL WALK,1.4010834,103.8986648
516,LIM LIAK ST,1.2852657,103.8315003
517,JALAN BERSEH,1.3070445,103.8576751
518,SENGKANG WEST WAY,1.3953191,103.882177
519,BUANGKOK GREEN,1.379241,103.8813464
520,SEMBAWANG WAY,1.4479222,103.8136138
521,PUNGGOL WAY,1.4132632,103.9009328
522,YISHUN ST 31,1.431399,103.8455371
523,TECK WHYE CRES,1.3822136,103.7502594
524,KRETA AYER RD,1.2812987,103.8433271
525,MONTREAL LINK,1.4501291,103.8275453
526,UPPER SERANGOON CRES,1.3775486,103.9025749
527,SUMANG LINK,1.4111794,103.8985983
528,SENGKANG EAST AVE,1.389954,103.8848358
529,YISHUN AVE 1,1.4249121,103.857826
530,ANCHORVALE CRES,1.3964871,103.8929513
531,YUNG KUANG RD,1.3314268,103.7235226
532,ANCHORVALE ST,1.3966654,103.89237
533,TAMPINES CENTRAL 8,1.35603,103.9403133
534,YISHUN ST 51,1.4165474,103.8399968
535,UPPER SERANGOON VIEW,1.3738348,103.9021499
536,TAMPINES AVE 1,1.3481655,103.9301186
537,BEDOK RESERVOIR CRES,1.3369521,103.9208651
538,ANG MO KIO ST 61,1.3821791,103.840551
539,DAWSON RD,1.2925703,103.810316
540,FERNVALE ST,1.3984982,103.8774636
541,SENG POH RD,1.2848984,103.8329619
542,HOUGANG ST 32,1.363442,103.895511
543,TAMPINES ST 86,1.3534178,103.9294461
544,HENDERSON RD,1.2834734,103.8202059
545,SUMANG WALK,1.4064635,103.8951798
546,CHOA CHU KANG AVE 7,1.372953,103.7480901
547,KEAT HONG CL,1.3745486,103.7422326
548,JURONG WEST CENTRAL 3,1.3405215,103.7059156
549,WOODLANDS CTR RD,1.4398121,103.7710821
550,MARINE PARADE CENTRAL,1.303508,103.9067741
551,ROCHOR RD,1.3006033,103.8559066
552,JALAN PASAR BARU,1.3201,103.8873
553,SELETAR WEST FARMWAY 6,1.3964684,103.8707059
554,MARGARET DRIVE,1.2964806,103.8108893
555,EAST COAST RD,1.3099621,103.9170189
556,KAMPONG BAHRU HILL,1.4175875,103.96954807407633
557,GEYLANG EAST AVE 2,1.3169779,103.8884919
558,HILLVIEW AVE,1.3586324,103.7633222
559,OUTRAM PK,1.2808682,103.83988410749787
560,SHORT ST,37.560402,-97.271318
561,HU CHING RD,1.3290616,103.7234428
562,LIM CHU KANG RD,1.4271534,103.7058346
563,NILE RD,1.2828,103.8175
564,JALAN MEMBINA BARAT,1.283347,103.826121
565,BUANGKOK STH FARMWAY 1,1.38838781397,103.987491735
566,ALEXANDRA RD,1.2735287,103.8020495
567,SEMBAWANG RD,1.453349,103.8317688
568,OUTRAM HILL,1.2842161,103.8362932
